{"results":[{"Id":2400,"Health Facility Name":"Seegehalli","address":"Seegehalli  Metarnity Hospital","street":"Virgonagara Post","landmark":"","zipcode":560049,"landline_number":"","latitude":13.014261,"longitude":77.717068,"altitude":0,"Facility Type":"Hospital","state":"Karnataka","city":"Bangalore","location":"Bangalore East","Block_Name":"BANGALORE EAST"},{"Id":2401,"Health Facility Name":"PHC Manduru","address":"PHC Manduru","street":"Manduru","landmark":"Manduru post","zipcode":560037,"landline_number":"","latitude":13.08205,"longitude":77.738654,"altitude":0,"Facility Type":"Hospital","state":"Karnataka","city":"Bangalore","location":"Bangalore East","Block_Name":"BANGALORE EAST"},{"Id":2402,"Health Facility Name":"Marathalli","address":"PHC Marathalli","street":"CHOWDISHWARI LAYOUT","landmark":"GOVT HIGH SCHOOL","zipcode":560035,"landline_number":"","latitude":12.9557811,"longitude":77.6931665,"altitude":0,"Facility Type":"Hospital","state":"Karnataka","city":"Bangalore","location":"Bangalore East","Block_Name":"BANGALORE EAST"},{"Id":2403,"Health Facility Name":"Bidarahalli","address":"PHC Bidarahalli","street":"Bidarahalli","landmark":"","zipcode":560049,"landline_number":"","latitude":13.059137,"longitude":77.715954,"altitude":0,"Facility Type":"Hospital","state":"Karnataka","city":"Bangalore","location":"Bangalore East","Block_Name":"BANGALORE EAST"},{"Id":2404,"Health Facility Name":"HALANAYAKANAHALLI","address":"PHC HALANAYAKANAHALLI","street":"HALANAYAKANAHALLI post","landmark":"","zipcode":560035,"landline_number":"","latitude":12.896942,"longitude":77.681712,"altitude":0,"Facility Type":"Hospital","state":"Karnataka","city":"Bangalore","location":"Bangalore East","Block_Name":"BANGALORE EAST"},{"Id":2405,"Health Facility Name":"Kannuru","address":"PHC Kannuru","street":"Kannuru","landmark":"Kannuru","zipcode":370035,"landline_number":"","latitude":13.093032,"longitude":77.653722,"altitude":0,"Facility Type":"Hospital","state":"Karnataka","city":"Bangalore","location":"Bangalore East","Block_Name":"BANGALORE EAST"},{"Id":5573,"Health Facility Name":"National Institute of Mental Health and Neuro Sciences (NIMHANS)","address":"Hosur Road / Marigowda Road,","street":"Lakkasandra, Wilson Garden, Bangalore, Karnataka, India","landmark":".","zipcode":560029,"landline_number":"08026995000; 08026995000; 08026995201; 08026995202","latitude":12.9576917,"longitude":77.6166955,"altitude":0,"Facility Type":"home health agency","state":"Karnataka","city":"Bangalore","location":"Bangalore East","Block_Name":"BANGALORE EAST"},{"Id":10923,"Health Facility Name":"SINGASANDRA","address":"Singasandra","street":"HOSUR MAIN ROAD","landmark":"GOVT SCHOOL","zipcode":560068,"landline_number":"","latitude":12.8721,"longitude":77.6521,"altitude":0,"Facility Type":"nursing home","state":"Karnataka","city":"Bangalore","location":"Bangalore South","Block_Name":"BANGALORE SOUTH"},{"Id":11358,"Health Facility Name":"Govindapura","address":"Health Centre Govindapura","street":"Govindapura","landmark":"","zipcode":560045,"landline_number":"","latitude":13.0329,"longitude":77.6186,"altitude":100,"Facility Type":"nursing home","state":"Karnataka","city":"Bangalore","location":"Bangalore North","Block_Name":"BANGALORE NORTH"},{"Id":11584,"Health Facility Name":"SAHAKAR NAGARA UPHC","address":"Hospital Sahakaranagara","street":"Sahakaranagara","landmark":"","zipcode":560097,"landline_number":"","latitude":13.0683,"longitude":77.5781,"altitude":50,"Facility Type":"Hospital","state":"Karnataka","city":"Bangalore","location":"Bangalore North","Block_Name":"BANGALORE NORTH"},{"Id":11982,"Health Facility Name":"Lakshmidevipura","address":"","street":"Lakshmidevipura","landmark":"","zipcode":561203,"landline_number":81197652007,"latitude":13.3561,"longitude":77.5583,"altitude":0,"Facility Type":"nursing home","state":"Karnataka","city":"Bangalore Rural","location":"Dod Ballapur ","Block_Name":"DOD BALLAPUR "},{"Id":12008,"Health Facility Name":"Veersandra","address":"nursing home VEERASANDRA","street":"VEERASANDRA MAIN ROAD","landmark":"NEAR ANGANAWADI","zipcode":562106,"landline_number":"","latitude":12.8376,"longitude":77.6741,"altitude":0,"Facility Type":"nursing home","state":"Karnataka","city":"Bangalore","location":"Anekal","Block_Name":"ANEKAL"},{"Id":12407,"Health Facility Name":"Thattekere","address":"","street":"Thattekere","landmark":"","zipcode":562111,"landline_number":8277517925,"latitude":13.2548,"longitude":77.2717,"altitude":0,"Facility Type":"nursing home","state":"Karnataka","city":"Bangalore Rural","location":"Nelamangala ","Block_Name":"NELAMANGALA "},{"Id":12710,"Health Facility Name":"K.Mallasandra-B","address":"","street":"K.Mallasandra-B","landmark":"","zipcode":560060,"landline_number":"","latitude":13.0079,"longitude":77.7864,"altitude":0,"Facility Type":"nursing home","state":"Karnataka","city":"Bangalore Rural","location":"Hosakote ","Block_Name":"HOSAKOTE "},{"Id":13019,"Health Facility Name":"Ramohalli","address":"Ramohalli","street":"NO201/1","landmark":"Ramohalli POST","zipcode":560074,"landline_number":"","latitude":12.9069,"longitude":77.4179,"altitude":0,"Facility Type":"nursing home","state":"Karnataka","city":"Bangalore","location":"Bangalore South","Block_Name":"BANGALORE SOUTH"},{"Id":13052,"Health Facility Name":"vijayapura C","address":"","street":"vijayapura C","landmark":"Urban","zipcode":562110,"landline_number":"","latitude":13.2941,"longitude":77.7901,"altitude":0,"Facility Type":"nursing home","state":"Karnataka","city":"Bangalore Rural","location":"Devanahalli ","Block_Name":"DEVANAHALLI "},{"Id":13054,"Health Facility Name":"H.AGARA","address":"H Hagara nursing home","street":"H Hagara","landmark":"","zipcode":560077,"landline_number":"","latitude":13.0364,"longitude":77.6547,"altitude":0,"Facility Type":"nursing home","state":"Karnataka","city":"Bangalore","location":"Bangalore East","Block_Name":"BANGALORE EAST"},{"Id":13239,"Health Facility Name":"Koneghatta","address":"","street":"Koneghatta","landmark":"","zipcode":561203,"landline_number":"","latitude":13.3125,"longitude":77.6015,"altitude":0,"Facility Type":"nursing home","state":"Karnataka","city":"Bangalore Rural","location":"Dod Ballapur ","Block_Name":"DOD BALLAPUR "},{"Id":13610,"Health Facility Name":"Upnagara","address":"Health Centre Upnagara","street":"Upnagara","landmark":"Upnagara","zipcode":560056,"landline_number":"","latitude":12.9584,"longitude":77.4777,"altitude":50,"Facility Type":"nursing home","state":"Karnataka","city":"Bangalore","location":"Bangalore North","Block_Name":"BANGALORE NORTH"},{"Id":13687,"Health Facility Name":"Nagavara","address":"Health Center Nagavara","street":"Nagavara","landmark":"Nagavara","zipcode":560045,"landline_number":"","latitude":13.0318,"longitude":77.6216,"altitude":50,"Facility Type":"nursing home","state":"Karnataka","city":"Bangalore","location":"Bangalore North","Block_Name":"BANGALORE NORTH"},{"Id":14017,"Health Facility Name":"Kodigehally","address":"","street":"","landmark":"","zipcode":"","landline_number":"","latitude":0,"longitude":0,"altitude":0,"Facility Type":"nursing home","state":"Karnataka","city":"Bangalore Rural","location":"Dod Ballapur ","Block_Name":"\\N"},{"Id":14292,"Health Facility Name":"JAKKUR","address":"Hospital P.H.C Agrahara LayouT","street":"Jakkuru","landmark":"Jakkuru","zipcode":560064,"landline_number":"","latitude":13.0735,"longitude":77.6022,"altitude":100,"Facility Type":"nursing home","state":"Karnataka","city":"Bangalore","location":"Bangalore North","Block_Name":"BANGALORE NORTH"},{"Id":16157,"Health Facility Name":"Bettakote","address":"","street":"Bettakote","landmark":"","zipcode":562129,"landline_number":"","latitude":13.1988,"longitude":77.7399,"altitude":0,"Facility Type":"nursing home","state":"Karnataka","city":"Bangalore Rural","location":"Devanahalli ","Block_Name":"DEVANAHALLI "},{"Id":16426,"Health Facility Name":"SubcenterA","address":"","street":"Doddaballapura","landmark":"","zipcode":561203,"landline_number":"","latitude":13.2948,"longitude":77.5356,"altitude":0,"Facility Type":"nursing home","state":"Karnataka","city":"Bangalore Rural","location":"Dod Ballapur ","Block_Name":"DOD BALLAPUR "},{"Id":16603,"Health Facility Name":"Narasipura","address":"","street":"Narasipura","landmark":"","zipcode":562111,"landline_number":8277517924,"latitude":13.2726,"longitude":77.2437,"altitude":0,"Facility Type":"nursing home","state":"Karnataka","city":"Bangalore Rural","location":"Nelamangala ","Block_Name":"NELAMANGALA "},{"Id":16643,"Health Facility Name":"Gundur","address":"","street":"Gundur","landmark":"","zipcode":560067,"landline_number":"","latitude":12.8771,"longitude":77.8383,"altitude":0,"Facility Type":"nursing home","state":"Karnataka","city":"Bangalore Rural","location":"Hosakote ","Block_Name":"HOSAKOTE "},{"Id":16695,"Health Facility Name":"Thyamagondlu-A.","address":"","street":"Thyamagondlu-A.","landmark":"","zipcode":562123,"landline_number":8277517936,"latitude":13.216,"longitude":77.301,"altitude":0,"Facility Type":"nursing home","state":"Karnataka","city":"Bangalore Rural","location":"Nelamangala ","Block_Name":"NELAMANGALA "},{"Id":17447,"Health Facility Name":"Hoskote-E","address":"","street":"Hoskote-E","landmark":"","zipcode":562114,"landline_number":"","latitude":13.0769,"longitude":77.8011,"altitude":0,"Facility Type":"nursing home","state":"Karnataka","city":"Bangalore Rural","location":"Hosakote ","Block_Name":"HOSAKOTE "},{"Id":17589,"Health Facility Name":"Dunnasandra","address":"","street":"Dunnasandra","landmark":"","zipcode":560067,"landline_number":"","latitude":13.0097,"longitude":77.8681,"altitude":0,"Facility Type":"nursing home","state":"Karnataka","city":"Bangalore Rural","location":"Hosakote ","Block_Name":"HOSAKOTE "},{"Id":18804,"Health Facility Name":"Hoodi","address":"nursing home Hoodi","street":"","landmark":"","zipcode":560048,"landline_number":"","latitude":12.9949,"longitude":77.7184,"altitude":0,"Facility Type":"nursing home","state":"Karnataka","city":"Bangalore","location":"Bangalore East","Block_Name":"BANGALORE EAST"},{"Id":18960,"Health Facility Name":"VARTHURU 24X7 UPHC","address":"Primary Health Center,","street":"Varthuru  Varthuru Post","landmark":"Varthuru main Road","zipcode":560087,"landline_number":9743808301,"latitude":12.9376,"longitude":77.7466,"altitude":0,"Facility Type":"Hospital","state":"Karnataka","city":"Bangalore","location":"Bangalore East","Block_Name":"BANGALORE EAST"},{"Id":20258,"Health Facility Name":"Mahadevapura","address":"","street":"Mahadevapura","landmark":"","zipcode":562123,"landline_number":8277517911,"latitude":13.0669,"longitude":77.3192,"altitude":0,"Facility Type":"nursing home","state":"Karnataka","city":"Bangalore Rural","location":"Nelamangala ","Block_Name":"NELAMANGALA "},{"Id":20599,"Health Facility Name":"CHC VIJAYAPURA","address":"","street":"","landmark":"","zipcode":"","landline_number":"","latitude":0,"longitude":0,"altitude":0,"Facility Type":"nursing home","state":"Karnataka","city":"Bangalore Rural","location":"Devanahalli ","Block_Name":"DEVANAHALLI "},{"Id":20700,"Health Facility Name":"Lakkondahally","address":"","street":"Lakkondahally","landmark":"","zipcode":562114,"landline_number":"","latitude":13.1007,"longitude":77.7782,"altitude":0,"Facility Type":"nursing home","state":"Karnataka","city":"Bangalore Rural","location":"Hosakote ","Block_Name":"HOSAKOTE "},{"Id":22458,"Health Facility Name":"Dasanapura","address":"Health Centre Dasanapura","street":"Dasanapura","landmark":"Dasanapura","zipcode":562123,"landline_number":"","latitude":13.0759,"longitude":77.436,"altitude":50,"Facility Type":"nursing home","state":"Karnataka","city":"Bangalore","location":"Bangalore North","Block_Name":"BANGALORE NORTH"},{"Id":22508,"Health Facility Name":"VANAKANAHALLI","address":"nursing home VANAKANAHALLI","street":"TALI ROAD","landmark":"NEAR GOVERNAMENT SCHOOL","zipcode":562106,"landline_number":"","latitude":12.6726,"longitude":77.6944,"altitude":0,"Facility Type":"nursing home","state":"Karnataka","city":"Bangalore","location":"Anekal","Block_Name":"ANEKAL"},{"Id":22581,"Health Facility Name":"H.B.R LAYOUT","address":"HBR layout","street":"","landmark":"","zipcode":560045,"landline_number":"","latitude":13.0336,"longitude":77.6377,"altitude":200,"Facility Type":"nursing home","state":"Karnataka","city":"Bangalore","location":"Bangalore North","Block_Name":"BANGALORE NORTH"},{"Id":23113,"Health Facility Name":"KEMPAEGOWDANAGARA","address":"Health Centre Kempegowda Nagara","street":"Kempegowda Nagara","landmark":"Kempegowda Nagara","zipcode":560058,"landline_number":"","latitude":13.0081,"longitude":77.5259,"altitude":50,"Facility Type":"nursing home","state":"Karnataka","city":"Bangalore","location":"Bangalore North","Block_Name":"BANGALORE NORTH"},{"Id":24110,"Health Facility Name":"Arasinakunte","address":"","street":"ARSINAKUNTE","landmark":"","zipcode":562123,"landline_number":8277517907,"latitude":13.0807,"longitude":77.4236,"altitude":0,"Facility Type":"nursing home","state":"Karnataka","city":"Bangalore Rural","location":"Nelamangala ","Block_Name":"NELAMANGALA "},{"Id":24470,"Health Facility Name":"BYTARAYANAPURA","address":"Bytarayanapura","street":"Bytarayanapura","landmark":"Bytarayanapura","zipcode":560092,"landline_number":"","latitude":13.0653,"longitude":77.5917,"altitude":100,"Facility Type":"nursing home","state":"Karnataka","city":"Bangalore","location":"Bangalore North","Block_Name":"BANGALORE NORTH"},{"Id":24538,"Health Facility Name":"THIPPENAHALLI UPHC","address":"Hospital Thippenahalli","street":"","landmark":"","zipcode":560073,"landline_number":"","latitude":13.0367,"longitude":77.4871,"altitude":50,"Facility Type":"Hospital","state":"Karnataka","city":"Bangalore","location":"Bangalore North","Block_Name":"BANGALORE NORTH"},{"Id":24740,"Health Facility Name":"HARAGADDE 24X7 UPHC","address":"Hospital HARAGADDE","street":"BANNERUGATTA & ANEKAL  MAIN ROAD","landmark":"NEAR BUSSTAND","zipcode":560105,"landline_number":"","latitude":12.7647,"longitude":77.6534,"altitude":0,"Facility Type":"Hospital","state":"Karnataka","city":"Bangalore","location":"Anekal","Block_Name":"ANEKAL"},{"Id":25186,"Health Facility Name":"Kalanagara","address":"Hospital P.H.C Abbigere","street":"Kalanagara","landmark":"Kamagondanahalli Post","zipcode":560090,"landline_number":"","latitude":13.0643,"longitude":77.5279,"altitude":100,"Facility Type":"nursing home","state":"Karnataka","city":"Bangalore","location":"Bangalore North","Block_Name":"BANGALORE NORTH"},{"Id":26459,"Health Facility Name":"BYAGADADENHALLI","address":"nursing home Byagadadenhalli","street":"ANEKAL CHNADAPURA MAIN ROAD","landmark":"NEAR GOVERNAMENT SCHOOL","zipcode":562106,"landline_number":"","latitude":12.7522,"longitude":77.7023,"altitude":0,"Facility Type":"nursing home","state":"Karnataka","city":"Bangalore","location":"Anekal","Block_Name":"ANEKAL"},{"Id":26821,"Health Facility Name":"Hegganahalli","address":"","street":"","landmark":"","zipcode":"","landline_number":"","latitude":0,"longitude":0,"altitude":0,"Facility Type":"nursing home","state":"Karnataka","city":"Bangalore Rural","location":"Devanahalli ","Block_Name":"DEVANAHALLI "},{"Id":27017,"Health Facility Name":"Doddabele","address":"","street":"Doddabele","landmark":"","zipcode":562123,"landline_number":8277517941,"latitude":13.2207,"longitude":77.3405,"altitude":0,"Facility Type":"nursing home","state":"Karnataka","city":"Bangalore Rural","location":"Nelamangala ","Block_Name":"NELAMANGALA "},{"Id":27162,"Health Facility Name":"Dommasandra","address":"nursing home DOMMASANDRA","street":"SARJAPURA & DOMMASANDRA  MAIN ROAD","landmark":"NEAR BUSSTAND","zipcode":562125,"landline_number":"","latitude":12.8799,"longitude":77.753,"altitude":0,"Facility Type":"nursing home","state":"Karnataka","city":"Bangalore","location":"Anekal","Block_Name":"ANEKAL"},{"Id":27186,"Health Facility Name":"Goddalunmuddenahalli","address":"","street":"","landmark":"","zipcode":"","landline_number":"","latitude":0,"longitude":0,"altitude":0,"Facility Type":"nursing home","state":"Karnataka","city":"Bangalore Rural","location":"Devanahalli ","Block_Name":"DEVANAHALLI "},{"Id":27246,"Health Facility Name":"Jaraganahalli","address":"Jaraganahalli","street":"KANAKAPURA MAIN ROAD","landmark":"RAMAMADIRA TEMPLE","zipcode":560078,"landline_number":"","latitude":12.9069,"longitude":77.5713,"altitude":0,"Facility Type":"nursing home","state":"Karnataka","city":"Bangalore","location":"Bangalore South","Block_Name":"BANGALORE SOUTH"},{"Id":27738,"Health Facility Name":"Muthsandra","address":"","street":"","landmark":"","zipcode":560087,"landline_number":"","latitude":12.9376,"longitude":77.7871,"altitude":0,"Facility Type":"nursing home","state":"Karnataka","city":"Bangalore Rural","location":"Hosakote ","Block_Name":"HOSAKOTE "},{"Id":27798,"Health Facility Name":"KAMMAGONDANAHALLI-1","address":"Kamgondanahalli","street":"Kamgondanahalli","landmark":"","zipcode":560090,"landline_number":"080-23254700","latitude":13.0635,"longitude":77.5307,"altitude":100,"Facility Type":"nursing home","state":"Karnataka","city":"Bangalore","location":"Bangalore North","Block_Name":"BANGALORE NORTH"},{"Id":28129,"Health Facility Name":"CHANASANDRA","address":"Channasandra","street":"RNS COLLAGE","landmark":"KENGERI MAIN ROAD","zipcode":560061,"landline_number":"","latitude":12.9025,"longitude":77.5183,"altitude":0,"Facility Type":"nursing home","state":"Karnataka","city":"Bangalore","location":"Bangalore South","Block_Name":"BANGALORE SOUTH"},{"Id":28361,"Health Facility Name":"Elekyathanahalli","address":"","street":"Elekyathanahalli","landmark":"","zipcode":562111,"landline_number":"","latitude":13.2971,"longitude":77.2688,"altitude":0,"Facility Type":"Hospital","state":"Karnataka","city":"Bangalore Rural","location":"Nelamangala ","Block_Name":"NELAMANGALA "},{"Id":28455,"Health Facility Name":"Hindiganala","address":"","street":"","landmark":"","zipcode":"","landline_number":"","latitude":13.2217,"longitude":77.9152,"altitude":0,"Facility Type":"nursing home","state":"Karnataka","city":"Bangalore Rural","location":"Hosakote ","Block_Name":"HOSAKOTE "},{"Id":28576,"Health Facility Name":"Budigere-B","address":"","street":"","landmark":"","zipcode":"","landline_number":"","latitude":0,"longitude":0,"altitude":0,"Facility Type":"nursing home","state":"Karnataka","city":"Bangalore Rural","location":"Devanahalli ","Block_Name":"DEVANAHALLI "},{"Id":28626,"Health Facility Name":"Nelagadharanahalli","address":"Health Centre Nelagadharanahalli","street":"Nelagadharanahalli","landmark":"Nelagadharanahalli","zipcode":560073,"landline_number":"","latitude":13.0294,"longitude":77.5044,"altitude":50,"Facility Type":"nursing home","state":"Karnataka","city":"Bangalore","location":"Bangalore North","Block_Name":"BANGALORE NORTH"},{"Id":28957,"Health Facility Name":"KENGERI UPANAGARA 24X7 UPHC","address":"Kengeri Upanagara","street":"RAILWAY STATION","landmark":"NEAR COLLAGE","zipcode":560060,"landline_number":"","latitude":12.9156,"longitude":77.4807,"altitude":0,"Facility Type":"Hospital","state":"Karnataka","city":"Bangalore","location":"Bangalore South","Block_Name":"BANGALORE SOUTH"},{"Id":28967,"Health Facility Name":"KAMARAJANAGAR","address":"Kamarajanagar","street":"Kamarajanagar","landmark":"Kamarajanagar","zipcode":560045,"landline_number":"","latitude":13.0202,"longitude":77.6185,"altitude":300,"Facility Type":"nursing home","state":"Karnataka","city":"Bangalore","location":"Bangalore North","Block_Name":"BANGALORE NORTH"},{"Id":29598,"Health Facility Name":"Shettyhalli","address":"Hospital P.H.C Abbigere","street":"Shettyhalli","landmark":"Shettyhalli","zipcode":560090,"landline_number":"","latitude":13.0689,"longitude":77.5293,"altitude":100,"Facility Type":"nursing home","state":"Karnataka","city":"Bangalore","location":"Bangalore North","Block_Name":"BANGALORE NORTH"},{"Id":29631,"Health Facility Name":"Makali","address":"Health Center Makali","street":"Makali","landmark":"Makali","zipcode":562123,"landline_number":"","latitude":13.0667,"longitude":77.455,"altitude":50,"Facility Type":"nursing home","state":"Karnataka","city":"Bangalore","location":"Bangalore North","Block_Name":"BANGALORE NORTH"},{"Id":29673,"Health Facility Name":"Devanahally-C","address":"","street":"","landmark":"","zipcode":"","landline_number":"","latitude":0,"longitude":0,"altitude":0,"Facility Type":"nursing home","state":"Karnataka","city":"Bangalore Rural","location":"Devanahalli ","Block_Name":"DEVANAHALLI "},{"Id":30698,"Health Facility Name":"Anekal CHC","address":"","street":"","landmark":"","zipcode":"","landline_number":"","latitude":0,"longitude":0,"altitude":0,"Facility Type":"nursing home","state":"Karnataka","city":"Bangalore","location":"Anekal","Block_Name":"ANEKAL"},{"Id":30898,"Health Facility Name":"ANJANAPURA","address":"Anjanapura","street":"AMRUTHA NAGARA MAIN ROAD","landmark":"GOVT SCHOOL","zipcode":560062,"landline_number":"","latitude":12.8622,"longitude":77.564,"altitude":0,"Facility Type":"nursing home","state":"Karnataka","city":"Bangalore","location":"Bangalore South","Block_Name":"BANGALORE SOUTH"},{"Id":32104,"Health Facility Name":"SORHUNSE","address":"nursing home Soravunase","street":"","landmark":"","zipcode":560087,"landline_number":"","latitude":12.9463,"longitude":77.7532,"altitude":0,"Facility Type":"nursing home","state":"Karnataka","city":"Bangalore","location":"Bangalore East","Block_Name":"BANGALORE EAST"},{"Id":32619,"Health Facility Name":"Somashettihalli","address":"Health Centre Somashettihalli","street":"Somashettihalli","landmark":"Somashettihalli","zipcode":560090,"landline_number":"080-23254700","latitude":13.0715,"longitude":77.521,"altitude":50,"Facility Type":"nursing home","state":"Karnataka","city":"Bangalore","location":"Bangalore North","Block_Name":"BANGALORE NORTH"},{"Id":32633,"Health Facility Name":"Balluru","address":"nursing home BALLURU","street":"NEAR NAGARAKUNTE","landmark":"PHC BALLURU","zipcode":562107,"landline_number":"","latitude":12.7543,"longitude":77.7872,"altitude":0,"Facility Type":"nursing home","state":"Karnataka","city":"Bangalore","location":"Anekal","Block_Name":"ANEKAL"},{"Id":32634,"Health Facility Name":"V.G.Kote","address":"","street":"V.G.Kote","landmark":"Rural","zipcode":562110,"landline_number":"","latitude":13.3268,"longitude":77.7269,"altitude":0,"Facility Type":"nursing home","state":"Karnataka","city":"Bangalore Rural","location":"Devanahalli ","Block_Name":"DEVANAHALLI "},{"Id":32924,"Health Facility Name":"Nandagudi","address":"","street":"Nandagudi","landmark":"","zipcode":562112,"landline_number":"","latitude":13.2025,"longitude":77.902,"altitude":0,"Facility Type":"Hospital","state":"Karnataka","city":"Bangalore Rural","location":"Hosakote ","Block_Name":"HOSAKOTE "},{"Id":32950,"Health Facility Name":"MANGANAHALLI","address":"Health Centre MANGANAHALLI","street":"MANGANAHALLI","landmark":"","zipcode":560091,"landline_number":"","latitude":12.9544,"longitude":77.4694,"altitude":100,"Facility Type":"nursing home","state":"Karnataka","city":"Bangalore","location":"Bangalore North","Block_Name":"BANGALORE NORTH"},{"Id":33283,"Health Facility Name":"Devanahalli","address":"","street":"","landmark":"","zipcode":"","landline_number":"","latitude":0,"longitude":0,"altitude":0,"Facility Type":"Hospital","state":"Karnataka","city":"Bangalore Rural","location":"Devanahalli ","Block_Name":"DEVANAHALLI "},{"Id":33322,"Health Facility Name":"Avathi-A","address":"","street":"Avathi-A","landmark":"Rural","zipcode":562110,"landline_number":"","latitude":13.2976,"longitude":77.7248,"altitude":0,"Facility Type":"nursing home","state":"Karnataka","city":"Bangalore Rural","location":"Devanahalli ","Block_Name":"DEVANAHALLI "},{"Id":33410,"Health Facility Name":"Abbigere CHC","address":"","street":"","landmark":"","zipcode":"","landline_number":"","latitude":0,"longitude":0,"altitude":0,"Facility Type":"hospital","state":"Karnataka","city":"Bangalore","location":"Bangalore North","Block_Name":"BANGALORE NORTH"},{"Id":33939,"Health Facility Name":"Devinagara","address":"Hospital P.H.C Sahakar nagara","street":"","landmark":"Near Sahakar nagara              Railway gate Sahakaranagara","zipcode":560097,"landline_number":"","latitude":13.0518,"longitude":77.575,"altitude":100,"Facility Type":"nursing home","state":"Karnataka","city":"Bangalore","location":"Bangalore North","Block_Name":"BANGALORE NORTH"},{"Id":34088,"Health Facility Name":"Yalachagere","address":"","street":"Yalachagere","landmark":"","zipcode":562123,"landline_number":8277517949,"latitude":13.1038,"longitude":77.3481,"altitude":0,"Facility Type":"nursing home","state":"Karnataka","city":"Bangalore Rural","location":"Nelamangala ","Block_Name":"NELAMANGALA "},{"Id":34131,"Health Facility Name":"Kundana","address":"","street":"Kundana","landmark":"","zipcode":562110,"landline_number":"","latitude":13.2574,"longitude":77.6191,"altitude":0,"Facility Type":"nursing home","state":"Karnataka","city":"Bangalore Rural","location":"Devanahalli ","Block_Name":"DEVANAHALLI "},{"Id":34199,"Health Facility Name":"VEERANNANAPALYA","address":"Virannanapalya","street":"Virannanapalya","landmark":"","zipcode":560045,"landline_number":"","latitude":13.0323,"longitude":77.6174,"altitude":100,"Facility Type":"nursing home","state":"Karnataka","city":"Bangalore","location":"Bangalore North","Block_Name":"BANGALORE NORTH"},{"Id":34424,"Health Facility Name":"Koira","address":"","street":"Koira","landmark":"","zipcode":562164,"landline_number":"","latitude":13.3014,"longitude":77.6393,"altitude":0,"Facility Type":"Hospital","state":"Karnataka","city":"Bangalore Rural","location":"Devanahalli ","Block_Name":"DEVANAHALLI "},{"Id":34591,"Health Facility Name":"Hasiiruhalli B","address":"","street":"Hasiiruhalli B","landmark":"","zipcode":562123,"landline_number":8277517955,"latitude":13.1921,"longitude":77.3641,"altitude":0,"Facility Type":"nursing home","state":"Karnataka","city":"Bangalore Rural","location":"Nelamangala ","Block_Name":"NELAMANGALA "},{"Id":34805,"Health Facility Name":"Chikkanahally","address":"","street":"Chikkanahally","landmark":"","zipcode":562135,"landline_number":"","latitude":13.3141,"longitude":77.7881,"altitude":0,"Facility Type":"nursing home","state":"Karnataka","city":"Bangalore Rural","location":"Devanahalli ","Block_Name":"DEVANAHALLI "},{"Id":35369,"Health Facility Name":"Nelavagilu","address":"","street":"Nelavagilu","landmark":"","zipcode":562112,"landline_number":"","latitude":13.2208,"longitude":77.9357,"altitude":0,"Facility Type":"nursing home","state":"Karnataka","city":"Bangalore Rural","location":"Hosakote ","Block_Name":"HOSAKOTE "},{"Id":35453,"Health Facility Name":"Istur","address":"","street":"Istur","landmark":"","zipcode":561203,"landline_number":"","latitude":13.2266,"longitude":77.4365,"altitude":0,"Facility Type":"nursing home","state":"Karnataka","city":"Bangalore Rural","location":"Dod Ballapur ","Block_Name":"DOD BALLAPUR "},{"Id":35500,"Health Facility Name":"BEGURU 24X7 UPHC","address":"PHC Beguru","street":"MAIN ROAD","landmark":"","zipcode":560068,"landline_number":"","latitude":15.8505,"longitude":75.7491,"altitude":0,"Facility Type":"Hospital","state":"Karnataka","city":"Bangalore","location":"Bangalore South","Block_Name":"BANGALORE SOUTH"},{"Id":35535,"Health Facility Name":"Sakkaregollahally","address":"","street":"Sakkaregollahally","landmark":"","zipcode":561204,"landline_number":8097601309,"latitude":13.3229,"longitude":77.394,"altitude":0,"Facility Type":"nursing home","state":"Karnataka","city":"Bangalore Rural","location":"Dod Ballapur ","Block_Name":"DOD BALLAPUR "},{"Id":35941,"Health Facility Name":"Yamare","address":"nursing home YAMARE","street":"SARJAPURA & DOMMASANDRA  MAIN ROAD","landmark":"NEAR PANCHAYATI","zipcode":562125,"landline_number":"","latitude":12.8731,"longitude":77.7651,"altitude":0,"Facility Type":"nursing home","state":"Karnataka","city":"Bangalore","location":"Anekal","Block_Name":"ANEKAL"},{"Id":35989,"Health Facility Name":"Kalanagara","address":"Health Centre Kamgondanahalli","street":"","landmark":"","zipcode":560090,"landline_number":"","latitude":13.0643,"longitude":77.5279,"altitude":100,"Facility Type":"nursing home","state":"Karnataka","city":"Bangalore","location":"Bangalore North","Block_Name":"BANGALORE NORTH"},{"Id":35994,"Health Facility Name":"Omshakthinagara","address":"Health Centre Omshakthinagara","street":"Omshakthinagara","landmark":"Omshakthinagara","zipcode":560091,"landline_number":"","latitude":13.0002,"longitude":77.5026,"altitude":50,"Facility Type":"nursing home","state":"Karnataka","city":"Bangalore","location":"Bangalore North","Block_Name":"BANGALORE NORTH"},{"Id":36209,"Health Facility Name":"BANGALORE EAST TALUK HOSPITAL","address":"K.R.Pura Genaral Hospital","street":"Old Madras road","landmark":"","zipcode":560036,"landline_number":"","latitude":13.0091288,"longitude":77.689055,"altitude":0,"Facility Type":"home health agency","state":"Karnataka","city":"Bangalore","location":"Bangalore East","Block_Name":"BANGALORE EAST"},{"Id":36400,"Health Facility Name":"SINGANAYAKANAHALLI","address":"Health Centre Singanayakanahalli","street":"Singanayakanahalli","landmark":"","zipcode":560064,"landline_number":"","latitude":13.1478,"longitude":77.5676,"altitude":100,"Facility Type":"nursing home","state":"Karnataka","city":"Bangalore","location":"Bangalore North","Block_Name":"BANGALORE NORTH"},{"Id":36534,"Health Facility Name":"KadanurB","address":"","street":"KadanurB","landmark":"","zipcode":561204,"landline_number":"","latitude":13.2433,"longitude":77.4554,"altitude":0,"Facility Type":"nursing home","state":"Karnataka","city":"Bangalore Rural","location":"Dod Ballapur ","Block_Name":"DOD BALLAPUR "},{"Id":36739,"Health Facility Name":"Nallur-A","address":"","street":"Nalluru A","landmark":"","zipcode":562129,"landline_number":"","latitude":13.1929,"longitude":77.7639,"altitude":0,"Facility Type":"nursing home","state":"Karnataka","city":"Bangalore Rural","location":"Devanahalli ","Block_Name":"DEVANAHALLI "},{"Id":36989,"Health Facility Name":"DEVANAHALLI TH","address":"","street":"","landmark":"","zipcode":"","landline_number":"","latitude":0,"longitude":0,"altitude":0,"Facility Type":"nursing home","state":"Karnataka","city":"Bangalore Rural","location":"Devanahalli ","Block_Name":"DEVANAHALLI "},{"Id":37008,"Health Facility Name":"H M T LAYOUT","address":"HMT layout","street":"HMT layout","landmark":"HMT layout","zipcode":560013,"landline_number":"","latitude":13.0469,"longitude":77.555,"altitude":200,"Facility Type":"nursing home","state":"Karnataka","city":"Bangalore","location":"Bangalore North","Block_Name":"BANGALORE NORTH"},{"Id":37245,"Health Facility Name":"Kakolu","address":"Hospital P.H.C Sonnenahalli","street":"Kakolu","landmark":"","zipcode":560089,"landline_number":"","latitude":13.1856,"longitude":77.52,"altitude":100,"Facility Type":"nursing home","state":"Karnataka","city":"Bangalore","location":"Bangalore North","Block_Name":"BANGALORE NORTH"},{"Id":37746,"Health Facility Name":"Tharalu","address":"Tharalu","street":"KANAKAPURA MAIN ROAD","landmark":"NEAR KAGGALIPURA","zipcode":560082,"landline_number":"","latitude":12.7891,"longitude":77.522,"altitude":0,"Facility Type":"nursing home","state":"Karnataka","city":"Bangalore","location":"Bangalore South","Block_Name":"BANGALORE SOUTH"},{"Id":38662,"Health Facility Name":"HEGGANAHALLI UPHC","address":"Health Centre Hegganahalli","street":"Hegganahalli","landmark":"Hegganahalli","zipcode":560091,"landline_number":"","latitude":13.0035,"longitude":77.5042,"altitude":50,"Facility Type":"Hospital","state":"Karnataka","city":"Bangalore","location":"Bangalore North","Block_Name":"BANGALORE NORTH"},{"Id":38784,"Health Facility Name":"k.R.pura","address":"Primary Health Center,","street":"K.R.Pura Genaral Hospital","landmark":"Old Madras road","zipcode":560036,"landline_number":"","latitude":13.0091288,"longitude":77.689055,"altitude":0,"Facility Type":"Hospital","state":"Karnataka","city":"Bangalore","location":"Bangalore East","Block_Name":"BANGALORE EAST"},{"Id":39108,"Health Facility Name":"AMRUTHAHALLI UPHC","address":"Hospital P.H.C Amruthahalli","street":"","landmark":"","zipcode":560092,"landline_number":"","latitude":13.0659,"longitude":77.5979,"altitude":50,"Facility Type":"home health agency","state":"Karnataka","city":"Bangalore","location":"Bangalore North","Block_Name":"BANGALORE NORTH"},{"Id":39207,"Health Facility Name":"Mugaluru","address":"nursing home MUGALURU","street":"CHIKKATIRUPATHI SARJAPURA MAIN ROAD","landmark":"NEAR PANCHAYATI","zipcode":562125,"landline_number":"","latitude":12.8947,"longitude":77.8211,"altitude":0,"Facility Type":"nursing home","state":"Karnataka","city":"Bangalore","location":"Anekal","Block_Name":"ANEKAL"},{"Id":39487,"Health Facility Name":"CHIKKAHOSAHALLI","address":"nursing home CHIKKAHOSAHALLI","street":"KANAKAPURA ROAD","landmark":"NEAR MUTTURAYASWAMY TEMPLE","zipcode":562106,"landline_number":"","latitude":12.706,"longitude":77.65,"altitude":0,"Facility Type":"nursing home","state":"Karnataka","city":"Bangalore","location":"Anekal","Block_Name":"ANEKAL"},{"Id":39615,"Health Facility Name":"Shantipur","address":"nursing home SHANTHIPURA","street":"HUSKUR MAIN ROAD","landmark":"NEAR FRUITE MARKET","zipcode":560099,"landline_number":"","latitude":12.8462,"longitude":77.6846,"altitude":0,"Facility Type":"nursing home","state":"Karnataka","city":"Bangalore","location":"Anekal","Block_Name":"ANEKAL"},{"Id":39622,"Health Facility Name":"BHAVANESHWARINAGARA","address":"Buvaneshwari Nagara","street":"DODDA BASTI MAIN ROAD","landmark":"NEAR ANGANAVADI","zipcode":560060,"landline_number":"","latitude":12.9419,"longitude":77.4912,"altitude":0,"Facility Type":"nursing home","state":"Karnataka","city":"Bangalore","location":"Bangalore South","Block_Name":"BANGALORE SOUTH"},{"Id":40417,"Health Facility Name":"M S Palya","address":"Health Centre P.H.C M S Palya","street":"","landmark":"","zipcode":560097,"landline_number":"","latitude":13.0815,"longitude":77.5495,"altitude":100,"Facility Type":"nursing home","state":"Karnataka","city":"Bangalore","location":"Bangalore North","Block_Name":"BANGALORE NORTH"},{"Id":40435,"Health Facility Name":"K.Mallasandra-A","address":"","street":"K.Mallasandra-A","landmark":"","zipcode":560067,"landline_number":"","latitude":13.0079,"longitude":77.7863,"altitude":0,"Facility Type":"nursing home","state":"Karnataka","city":"Bangalore Rural","location":"Hosakote ","Block_Name":"HOSAKOTE "},{"Id":40562,"Health Facility Name":"Doddabanahalli","address":"nursing home Doddabanahalli","street":"","landmark":"","zipcode":560067,"landline_number":"","latitude":13.0244,"longitude":77.7478,"altitude":0,"Facility Type":"nursing home","state":"Karnataka","city":"Bangalore","location":"Bangalore East","Block_Name":"BANGALORE EAST"},{"Id":40984,"Health Facility Name":"Kanasavadi-A","address":"","street":"Kanasavadi-A","landmark":"","zipcode":561203,"landline_number":"","latitude":13.2053,"longitude":77.437,"altitude":0,"Facility Type":"nursing home","state":"Karnataka","city":"Bangalore Rural","location":"Dod Ballapur ","Block_Name":"DOD BALLAPUR "},{"Id":40998,"Health Facility Name":"MAHADEVAPURA","address":"nursing home Mahadevpura","street":"","landmark":"","zipcode":560037,"landline_number":"","latitude":12.9888,"longitude":77.6869,"altitude":0,"Facility Type":"nursing home","state":"Karnataka","city":"Bangalore","location":"Bangalore East","Block_Name":"BANGALORE EAST"},{"Id":41339,"Health Facility Name":"BAHUBALINAGAR","address":"Hospital P.H.C Jalahalli","street":"Bahubalinagar","landmark":"","zipcode":560013,"landline_number":"","latitude":13.0447,"longitude":77.5512,"altitude":100,"Facility Type":"nursing home","state":"Karnataka","city":"Bangalore","location":"Bangalore North","Block_Name":"BANGALORE NORTH"},{"Id":41415,"Health Facility Name":"HENNURU","address":"Health Center Hennooru","street":"Hennooru","landmark":"Hennooru","zipcode":560045,"landline_number":"","latitude":13.0344,"longitude":77.6343,"altitude":50,"Facility Type":"nursing home","state":"Karnataka","city":"Bangalore","location":"Bangalore North","Block_Name":"BANGALORE NORTH"},{"Id":41952,"Health Facility Name":"Hasiiruhalli A","address":"","street":"Hasiiruhalli A","landmark":"","zipcode":562123,"landline_number":8277517954,"latitude":13.1921,"longitude":77.364,"altitude":0,"Facility Type":"nursing home","state":"Karnataka","city":"Bangalore Rural","location":"Nelamangala ","Block_Name":"NELAMANGALA "},{"Id":42339,"Health Facility Name":"Sulikere","address":"Sulikere","street":"GRAMMA PANCHAYATH","landmark":"BANGALORE SOUTH","zipcode":560074,"landline_number":"","latitude":12.9382,"longitude":77.4477,"altitude":0,"Facility Type":"nursing home","state":"Karnataka","city":"Bangalore","location":"Bangalore South","Block_Name":"BANGALORE SOUTH"},{"Id":42341,"Health Facility Name":"Hemmigepura","address":"Hemmigepura","street":"GOLLAHALLI MAIN ROAD","landmark":"NEAR ANGANAVADI","zipcode":560060,"landline_number":"","latitude":12.8823,"longitude":77.4849,"altitude":0,"Facility Type":"nursing home","state":"Karnataka","city":"Bangalore","location":"Bangalore South","Block_Name":"BANGALORE SOUTH"},{"Id":42836,"Health Facility Name":"Ramchandrapura","address":"Health Centre Ramchandrapura","street":"Ramchandrapura","landmark":"Ramchandrapura","zipcode":560097,"landline_number":"","latitude":13.0588,"longitude":77.5484,"altitude":50,"Facility Type":"nursing home","state":"Karnataka","city":"Bangalore","location":"Bangalore North","Block_Name":"BANGALORE NORTH"},{"Id":44342,"Health Facility Name":"GAREBHAVIPALYA","address":"Garvebavipalya","street":"PHC BOMMANA HALLI","landmark":"","zipcode":560068,"landline_number":"","latitude":12.894,"longitude":77.6353,"altitude":0,"Facility Type":"nursing home","state":"Karnataka","city":"Bangalore","location":"Bangalore South","Block_Name":"BANGALORE SOUTH"},{"Id":44391,"Health Facility Name":"CHIKKABANAVARA UPHC","address":"Hospital P.H.C Chikkabanavara","street":"","landmark":"","zipcode":560090,"landline_number":"080-28390209","latitude":13.0833,"longitude":77.4993,"altitude":50,"Facility Type":"Hospital","state":"Karnataka","city":"Bangalore","location":"Bangalore North","Block_Name":"BANGALORE NORTH"},{"Id":44554,"Health Facility Name":"Devarahoshally","address":"","street":"Devarahoshally","landmark":"","zipcode":562111,"landline_number":8277517923,"latitude":13.264,"longitude":77.1946,"altitude":0,"Facility Type":"nursing home","state":"Karnataka","city":"Bangalore Rural","location":"Nelamangala ","Block_Name":"NELAMANGALA "},{"Id":45152,"Health Facility Name":"CHIKKABANAVARA","address":"Hospital P.H.C Chikkabanavara","street":"","landmark":"","zipcode":560090,"landline_number":"080-28390209","latitude":13.0834,"longitude":77.4993,"altitude":50,"Facility Type":"nursing home","state":"Karnataka","city":"Bangalore","location":"Bangalore North","Block_Name":"BANGALORE NORTH"},{"Id":45361,"Health Facility Name":"Jakkanahally","address":"","street":"Jakkanahally","landmark":"","zipcode":562132,"landline_number":8277517940,"latitude":13.1809,"longitude":77.3441,"altitude":0,"Facility Type":"nursing home","state":"Karnataka","city":"Bangalore Rural","location":"Nelamangala ","Block_Name":"NELAMANGALA "},{"Id":46456,"Health Facility Name":"VIRATNAGARA","address":"VirataNagara","street":"PHC RUPANAAGRAHARA","landmark":"","zipcode":560068,"landline_number":"","latitude":12.9034,"longitude":77.6252,"altitude":0,"Facility Type":"nursing home","state":"Karnataka","city":"Bangalore","location":"Bangalore South","Block_Name":"BANGALORE SOUTH"},{"Id":46824,"Health Facility Name":"PUTTENAHALLI","address":"Health Centre Puttenhalli","street":"Puttenhalli","landmark":"","zipcode":560064,"landline_number":"","latitude":13.1094,"longitude":77.58,"altitude":100,"Facility Type":"nursing home","state":"Karnataka","city":"Bangalore","location":"Bangalore North","Block_Name":"BANGALORE NORTH"},{"Id":47238,"Health Facility Name":"Tippur","address":"","street":"Tippur","landmark":"","zipcode":561203,"landline_number":8119756126,"latitude":13.3499,"longitude":77.4576,"altitude":0,"Facility Type":"nursing home","state":"Karnataka","city":"Bangalore Rural","location":"Dod Ballapur ","Block_Name":"DOD BALLAPUR "},{"Id":47359,"Health Facility Name":"MULLURU","address":"nursing home Malluru","street":"Malluru","landmark":"","zipcode":560035,"landline_number":"","latitude":12.887941,"longitude":77.717003,"altitude":0,"Facility Type":"nursing home","state":"Karnataka","city":"Bangalore","location":"Bangalore East","Block_Name":"BANGALORE EAST"},{"Id":47766,"Health Facility Name":"Antharahally","address":"","street":"Antharahally","landmark":"","zipcode":561203,"landline_number":81197657012,"latitude":13.3537,"longitude":77.5098,"altitude":0,"Facility Type":"nursing home","state":"Karnataka","city":"Bangalore Rural","location":"Dod Ballapur ","Block_Name":"DOD BALLAPUR "},{"Id":47832,"Health Facility Name":"Shivanapura","address":"","street":"Shivanapura","landmark":"","zipcode":562112,"landline_number":"","latitude":13.1541,"longitude":77.9031,"altitude":0,"Facility Type":"nursing home","state":"Karnataka","city":"Bangalore Rural","location":"Hosakote ","Block_Name":"HOSAKOTE "},{"Id":48167,"Health Facility Name":"Madhavara","address":"Madhavara","street":"Madhavara","landmark":"Madhavara","zipcode":562123,"landline_number":"","latitude":13.054,"longitude":77.4724,"altitude":300,"Facility Type":"nursing home","state":"Karnataka","city":"Bangalore","location":"Bangalore North","Block_Name":"BANGALORE NORTH"},{"Id":48302,"Health Facility Name":"BANGALORE NORTH TH","address":"","street":"","landmark":"","zipcode":"","landline_number":"","latitude":0,"longitude":0,"altitude":0,"Facility Type":"nursing home","state":"Karnataka","city":"Bangalore","location":"Bangalore North","Block_Name":"BANGALORE NORTH"},{"Id":48485,"Health Facility Name":"SasaluB","address":"","street":"SasaluB","landmark":"","zipcode":561204,"landline_number":"","latitude":13.4362,"longitude":77.3882,"altitude":0,"Facility Type":"nursing home","state":"Karnataka","city":"Bangalore Rural","location":"Dod Ballapur ","Block_Name":"DOD BALLAPUR "},{"Id":48500,"Health Facility Name":"HOSKOTE TH","address":"","street":"","landmark":"","zipcode":"","landline_number":"","latitude":0,"longitude":0,"altitude":0,"Facility Type":"nursing home","state":"Karnataka","city":"Bangalore Rural","location":"Hosakote ","Block_Name":"HOSAKOTE "},{"Id":48635,"Health Facility Name":"BOLARE UPHC","address":"Bolare","street":"KANAKAPURA MAIN ROAD","landmark":"NEAR WATER TANK","zipcode":560082,"landline_number":"","latitude":12.7542,"longitude":77.4848,"altitude":0,"Facility Type":"home health agency","state":"Karnataka","city":"Bangalore","location":"Bangalore South","Block_Name":"BANGALORE SOUTH"},{"Id":48637,"Health Facility Name":"Bharathnagara","address":"#227 Vidyaranyapura Post","street":"","landmark":"","zipcode":560014,"landline_number":"","latitude":13.0622,"longitude":77.5928,"altitude":200,"Facility Type":"nursing home","state":"Karnataka","city":"Bangalore","location":"Bangalore North","Block_Name":"BANGALORE NORTH"},{"Id":49125,"Health Facility Name":"MadhaNayakanahalli","address":"Health Centre MadhaNayakanahalli","street":"MadhaNayakanahalli","landmark":"MAKALI","zipcode":562123,"landline_number":"","latitude":13.0626,"longitude":77.463,"altitude":100,"Facility Type":"nursing home","state":"Karnataka","city":"Bangalore","location":"Bangalore North","Block_Name":"BANGALORE NORTH"},{"Id":49214,"Health Facility Name":"Nandagudi-A","address":"","street":"Nandagudi-A","landmark":"","zipcode":562112,"landline_number":"","latitude":13.2025,"longitude":77.902,"altitude":0,"Facility Type":"nursing home","state":"Karnataka","city":"Bangalore Rural","location":"Hosakote ","Block_Name":"HOSAKOTE "},{"Id":49403,"Health Facility Name":"Shivagange -A","address":"","street":"SHIVAGANGE-A","landmark":"","zipcode":562111,"landline_number":8277517926,"latitude":13.18,"longitude":77.2318,"altitude":0,"Facility Type":"nursing home","state":"Karnataka","city":"Bangalore Rural","location":"Nelamangala ","Block_Name":"NELAMANGALA "},{"Id":49526,"Health Facility Name":"TINDLU","address":"Health Centre Thindlu","street":"Thindlu","landmark":"","zipcode":560091,"landline_number":"","latitude":13.0749,"longitude":77.5673,"altitude":100,"Facility Type":"nursing home","state":"Karnataka","city":"Bangalore","location":"Bangalore North","Block_Name":"BANGALORE NORTH"},{"Id":50245,"Health Facility Name":"Whitefield","address":"nursing home Whitefield","street":"","landmark":"Whitefield","zipcode":560087,"landline_number":"","latitude":12.9701,"longitude":77.7502,"altitude":0,"Facility Type":"nursing home","state":"Karnataka","city":"Bangalore","location":"Bangalore East","Block_Name":"BANGALORE EAST"},{"Id":50485,"Health Facility Name":"GUDAHATTI UPHC","address":"Hospital GUDDAHATTI","street":"MUTTANALLURU ROAD","landmark":"ATTACHED TO VETARNARY HOSPITAL","zipcode":562107,"landline_number":"","latitude":12.8022,"longitude":77.7423,"altitude":0,"Facility Type":"Hospital","state":"Karnataka","city":"Bangalore","location":"Anekal","Block_Name":"ANEKAL"},{"Id":50808,"Health Facility Name":"D.B.Pura -Part D","address":"","street":"","landmark":"","zipcode":"","landline_number":"","latitude":0,"longitude":0,"altitude":0,"Facility Type":"nursing home","state":"Karnataka","city":"Bangalore Rural","location":"Dod Ballapur ","Block_Name":"\\N"},{"Id":51404,"Health Facility Name":"GARUDACHARAPALYA","address":"Garudacharpalya","street":"nursing home","landmark":"Garudacharpalya","zipcode":560048,"landline_number":"","latitude":12.9893,"longitude":77.7002,"altitude":0,"Facility Type":"nursing home","state":"Karnataka","city":"Bangalore","location":"Bangalore East","Block_Name":"BANGALORE EAST"},{"Id":51601,"Health Facility Name":"HUSKURU","address":"nursing home HUSKURU","street":"NEAR MADDURAMMA TEMPLE","landmark":"NEAR BUSSTAND","zipcode":562125,"landline_number":"","latitude":12.8613,"longitude":77.7055,"altitude":0,"Facility Type":"nursing home","state":"Karnataka","city":"Bangalore","location":"Anekal","Block_Name":"ANEKAL"},{"Id":51677,"Health Facility Name":"Veerabadranagara","address":"Veerabadranagara","street":"2ND MAIN ROAD","landmark":"ASHWINI SCHOOL","zipcode":560098,"landline_number":"","latitude":12.9332,"longitude":77.5392,"altitude":0,"Facility Type":"nursing home","state":"Karnataka","city":"Bangalore","location":"Bangalore South","Block_Name":"BANGALORE SOUTH"},{"Id":51680,"Health Facility Name":"A.P.T.S YELAHANKA UPHC","address":"Hospital P.H.C APTS","street":"Armed Police Training School","landmark":"Bagaluru Cross, Yelahanka","zipcode":560063,"landline_number":"","latitude":13.0994,"longitude":77.5963,"altitude":100,"Facility Type":"home health agency","state":"Karnataka","city":"Bangalore","location":"Bangalore North","Block_Name":"BANGALORE NORTH"},{"Id":51767,"Health Facility Name":"HEROHALLI UPHC","address":"Hospital P.H.C Herohalli","street":"Magadi Main Road","landmark":"","zipcode":560091,"landline_number":"","latitude":12.9878,"longitude":77.4935,"altitude":100,"Facility Type":"Hospital","state":"Karnataka","city":"Bangalore","location":"Bangalore North","Block_Name":"BANGALORE NORTH"},{"Id":52442,"Health Facility Name":"G .Hoshally","address":"","street":"G .Hoshally","landmark":"","zipcode":561203,"landline_number":8119756126,"latitude":13.4387,"longitude":77.4606,"altitude":0,"Facility Type":"Hospital","state":"Karnataka","city":"Bangalore Rural","location":"Dod Ballapur ","Block_Name":"DOD BALLAPUR "},{"Id":52471,"Health Facility Name":"SUBHASHNAGARA","address":"Subhash nagara","street":"PHC BEGUR","landmark":"","zipcode":560068,"landline_number":"","latitude":12.8795,"longitude":77.6338,"altitude":0,"Facility Type":"nursing home","state":"Karnataka","city":"Bangalore","location":"Bangalore South","Block_Name":"BANGALORE SOUTH"},{"Id":53448,"Health Facility Name":"PRASHANTNAGARA","address":"Health Centre Prashanthnagara","street":"Prashanthnagara","landmark":"Prashanthnagara","zipcode":560057,"landline_number":"","latitude":13.0535,"longitude":77.5099,"altitude":50,"Facility Type":"nursing home","state":"Karnataka","city":"Bangalore","location":"Bangalore North","Block_Name":"BANGALORE NORTH"},{"Id":53664,"Health Facility Name":"Cikkahullur","address":"","street":"Cikkahullur","landmark":"","zipcode":562114,"landline_number":"","latitude":13.1055,"longitude":77.8249,"altitude":0,"Facility Type":"nursing home","state":"Karnataka","city":"Bangalore Rural","location":"Hosakote ","Block_Name":"HOSAKOTE "},{"Id":53951,"Health Facility Name":"Kerekattiganoor B","address":"","street":"Kerekattiganoor B","landmark":"","zipcode":562111,"landline_number":8277517934,"latitude":13.158,"longitude":77.2659,"altitude":0,"Facility Type":"nursing home","state":"Karnataka","city":"Bangalore Rural","location":"Nelamangala ","Block_Name":"NELAMANGALA "},{"Id":54124,"Health Facility Name":"KENGERIUPANAGARA","address":"Kengeri Upanagara","street":"RAILWAY STATION","landmark":"NEAR COLLAGE","zipcode":560060,"landline_number":"","latitude":12.9157,"longitude":77.4808,"altitude":0,"Facility Type":"nursing home","state":"Karnataka","city":"Bangalore","location":"Bangalore South","Block_Name":"BANGALORE SOUTH"},{"Id":55059,"Health Facility Name":"RAJGOPALNAGARA","address":"Health Centre Rajagopala Nagara","street":"Rajagopala Nagara","landmark":"","zipcode":560058,"landline_number":"","latitude":13.0121,"longitude":77.509,"altitude":100,"Facility Type":"nursing home","state":"Karnataka","city":"Bangalore","location":"Bangalore North","Block_Name":"BANGALORE NORTH"},{"Id":55091,"Health Facility Name":"Aralumallige","address":"","street":"","landmark":"","zipcode":"","landline_number":"","latitude":0,"longitude":0,"altitude":0,"Facility Type":"nursing home","state":"Karnataka","city":"Bangalore Rural","location":"Dod Ballapur ","Block_Name":"DOD BALLAPUR "},{"Id":55131,"Health Facility Name":"SULIKERE UPHC","address":"Sulikere","street":"GRAMMA PANCHYATH","landmark":"","zipcode":560074,"landline_number":"","latitude":12.9382,"longitude":77.4477,"altitude":0,"Facility Type":"Hospital","state":"Karnataka","city":"Bangalore","location":"Bangalore South","Block_Name":"BANGALORE SOUTH"},{"Id":55171,"Health Facility Name":"SASALU","address":"","street":"SASALU","landmark":"","zipcode":561204,"landline_number":81197658144,"latitude":13.4076,"longitude":77.3853,"altitude":0,"Facility Type":"Hospital","state":"Karnataka","city":"Bangalore Rural","location":"Dod Ballapur ","Block_Name":"DOD BALLAPUR "},{"Id":55524,"Health Facility Name":"SHIVAPUR","address":"Hospital P.H.C Thippenahalli","street":"Shivapura","landmark":"","zipcode":560073,"landline_number":"","latitude":13.0249,"longitude":77.5074,"altitude":300,"Facility Type":"nursing home","state":"Karnataka","city":"Bangalore","location":"Bangalore North","Block_Name":"BANGALORE NORTH"},{"Id":55606,"Health Facility Name":"Hongasandra","address":"Hongasandra","street":"PHC KODICHIKKANAHALLI","landmark":"","zipcode":560068,"landline_number":"","latitude":12.8989,"longitude":77.6233,"altitude":0,"Facility Type":"nursing home","state":"Karnataka","city":"Bangalore","location":"Bangalore South","Block_Name":"BANGALORE SOUTH"},{"Id":55678,"Health Facility Name":"HUNASAMARANAHALLI","address":"Hunasumaranahalli","street":"","landmark":"","zipcode":562157,"landline_number":"","latitude":13.1437,"longitude":77.6198,"altitude":200,"Facility Type":"nursing home","state":"Karnataka","city":"Bangalore","location":"Bangalore North","Block_Name":"BANGALORE NORTH"},{"Id":55735,"Health Facility Name":"Kuluvanahally","address":"","street":"Kuluvanahally","landmark":"Kuluvanahally","zipcode":562111,"landline_number":8277517931,"latitude":13.1757,"longitude":77.2988,"altitude":0,"Facility Type":"nursing home","state":"Karnataka","city":"Bangalore Rural","location":"Nelamangala ","Block_Name":"NELAMANGALA "},{"Id":56020,"Health Facility Name":"Doddatumkur","address":"","street":"Doddatumkur","landmark":"","zipcode":561203,"landline_number":812000000000,"latitude":13.2261,"longitude":77.5275,"altitude":0,"Facility Type":"Hospital","state":"Karnataka","city":"Bangalore Rural","location":"Dod Ballapur ","Block_Name":"DOD BALLAPUR "},{"Id":56565,"Health Facility Name":"Doddahejjaji","address":"","street":"Doddahejjaji","landmark":"","zipcode":561203,"landline_number":81197655600,"latitude":13.2713,"longitude":77.4161,"altitude":0,"Facility Type":"Hospital","state":"Karnataka","city":"Bangalore Rural","location":"Dod Ballapur ","Block_Name":"DOD BALLAPUR "},{"Id":57221,"Health Facility Name":"RAJANAKUNTE","address":"Health Centre Rajanukunte","street":"Rajanukunte","landmark":"","zipcode":560064,"landline_number":"","latitude":13.1721,"longitude":77.5645,"altitude":100,"Facility Type":"nursing home","state":"Karnataka","city":"Bangalore","location":"Bangalore North","Block_Name":"BANGALORE NORTH"},{"Id":57276,"Health Facility Name":"SARJAPURA UPHC","address":"Hospital SARJAPURA","street":"SARJAPURA & DOMMASANDRA  MAIN ROAD","landmark":"OPP.POLICE STATION","zipcode":562125,"landline_number":"","latitude":12.8607,"longitude":77.7848,"altitude":0,"Facility Type":"Hospital","state":"Karnataka","city":"Bangalore","location":"Anekal","Block_Name":"ANEKAL"},{"Id":57296,"Health Facility Name":"HANDENAHALLI","address":"nursing home HANDENAHALLI","street":"NEAR HANDENAHALLI BUSSTAND","landmark":"NEAR HANDENAHALLI BUSSTAND","zipcode":562125,"landline_number":"","latitude":12.8253,"longitude":77.766,"altitude":0,"Facility Type":"nursing home","state":"Karnataka","city":"Bangalore","location":"Anekal","Block_Name":"ANEKAL"},{"Id":57752,"Health Facility Name":"Abbigere","address":"Health Centre Abbigere","street":"Abbigere","landmark":"Abbigere","zipcode":560090,"landline_number":"080-23254700","latitude":13.0562,"longitude":77.5344,"altitude":50,"Facility Type":"nursing home","state":"Karnataka","city":"Bangalore","location":"Bangalore North","Block_Name":"BANGALORE NORTH"},{"Id":58639,"Health Facility Name":"K.GOLLAHALLI UPHC","address":"K.Gollahalli","street":"GOVT HIGH SCHOOL","landmark":"ARALLIKATTE BUS STOP","zipcode":560074,"landline_number":"","latitude":12.8463,"longitude":77.4714,"altitude":0,"Facility Type":"Hospital","state":"Karnataka","city":"Bangalore","location":"Bangalore South","Block_Name":"BANGALORE SOUTH"},{"Id":58853,"Health Facility Name":"Makanahalli","address":"","street":"Makanahalli","landmark":"","zipcode":562111,"landline_number":"","latitude":13.0106,"longitude":77.8284,"altitude":0,"Facility Type":"nursing home","state":"Karnataka","city":"Bangalore Rural","location":"Hosakote ","Block_Name":"HOSAKOTE "},{"Id":59050,"Health Facility Name":"Mylanahally","address":"","street":"Mylanahally","landmark":"","zipcode":562123,"landline_number":8277517913,"latitude":13.1332,"longitude":77.3992,"altitude":0,"Facility Type":"nursing home","state":"Karnataka","city":"Bangalore Rural","location":"Nelamangala ","Block_Name":"NELAMANGALA "},{"Id":59372,"Health Facility Name":"Mugabala","address":"","street":"mugabala","landmark":"","zipcode":562114,"landline_number":"","latitude":13.1201,"longitude":77.8872,"altitude":0,"Facility Type":"Hospital","state":"Karnataka","city":"Bangalore Rural","location":"Hosakote ","Block_Name":"HOSAKOTE "},{"Id":59502,"Health Facility Name":"KONANAKUNTE 24X7 UPHC","address":"Konanakunte","street":"NEAR PARK","landmark":"PARK","zipcode":560062,"landline_number":8026323311,"latitude":12.884,"longitude":77.5663,"altitude":0,"Facility Type":"Hospital","state":"Karnataka","city":"Bangalore","location":"Bangalore South","Block_Name":"BANGALORE SOUTH"},{"Id":59684,"Health Facility Name":"Thalaghattapura","address":"Thalaghattapura","street":"KANANKAPURA MAIN ROAD","landmark":"GOVT SCHOOL","zipcode":560062,"landline_number":"","latitude":12.8693,"longitude":77.5371,"altitude":0,"Facility Type":"nursing home","state":"Karnataka","city":"Bangalore","location":"Bangalore South","Block_Name":"BANGALORE SOUTH"},{"Id":59899,"Health Facility Name":"Vidyamanyanagara","address":"Health Centre Vidyamanyanagara","street":"Vidyamanyanagara","landmark":"","zipcode":560091,"landline_number":"","latitude":12.9905,"longitude":77.4948,"altitude":100,"Facility Type":"nursing home","state":"Karnataka","city":"Bangalore","location":"Bangalore North","Block_Name":"BANGALORE NORTH"},{"Id":60138,"Health Facility Name":"Varthuru","address":"nursing home Varthuru","street":"VARTHURU","landmark":"","zipcode":560087,"landline_number":"","latitude":12.9375,"longitude":77.7465,"altitude":0,"Facility Type":"nursing home","state":"Karnataka","city":"Bangalore","location":"Bangalore East","Block_Name":"BANGALORE EAST"},{"Id":60141,"Health Facility Name":"Kundana","address":"","street":"Kundana","landmark":"","zipcode":562110,"landline_number":"","latitude":13.2574,"longitude":77.6192,"altitude":0,"Facility Type":"Hospital","state":"Karnataka","city":"Bangalore Rural","location":"Devanahalli ","Block_Name":"DEVANAHALLI "},{"Id":60160,"Health Facility Name":"KADUSONNAPPANAHALLI","address":"nursing home K.S.Halli","street":"K.S.Halli","landmark":"","zipcode":560094,"landline_number":"","latitude":13.0977,"longitude":77.6663,"altitude":0,"Facility Type":"nursing home","state":"Karnataka","city":"Bangalore","location":"Bangalore East","Block_Name":"BANGALORE EAST"},{"Id":60189,"Health Facility Name":"KITHANAHALLI","address":"Health Centre Kittanahalli","street":"Kittanahalli","landmark":"","zipcode":562130,"landline_number":"","latitude":13.0091,"longitude":77.4199,"altitude":100,"Facility Type":"nursing home","state":"Karnataka","city":"Bangalore","location":"Bangalore North","Block_Name":"BANGALORE NORTH"},{"Id":60303,"Health Facility Name":"INDLAWADI UPHC","address":"Hospital","street":"HAROHALLI  MAIN ROAD","landmark":"NEAR GOVERNAMENT SCHOOL","zipcode":562106,"landline_number":"","latitude":12.7284,"longitude":77.6385,"altitude":0,"Facility Type":"Hospital","state":"Karnataka","city":"Bangalore","location":"Anekal","Block_Name":"ANEKAL"},{"Id":60315,"Health Facility Name":"Sadanahalli","address":"","street":"","landmark":"","zipcode":"","landline_number":"","latitude":0,"longitude":0,"altitude":0,"Facility Type":"nursing home","state":"Karnataka","city":"Bangalore Rural","location":"Devanahalli ","Block_Name":"DEVANAHALLI "},{"Id":60450,"Health Facility Name":"Surajakkanhalli","address":"nursing home SURAJAKKANAHALLI","street":"ANEKAL BANNERUGATTA MAIN ROAD","landmark":"OLD PANCHAYATH BUILDING","zipcode":562106,"landline_number":"","latitude":12.7391,"longitude":77.6662,"altitude":0,"Facility Type":"nursing home","state":"Karnataka","city":"Bangalore","location":"Anekal","Block_Name":"ANEKAL"},{"Id":60498,"Health Facility Name":"Honnasandra","address":"","street":"Honnasandra","landmark":"","zipcode":562123,"landline_number":8277517910,"latitude":13.0402,"longitude":77.3369,"altitude":0,"Facility Type":"nursing home","state":"Karnataka","city":"Bangalore Rural","location":"Nelamangala ","Block_Name":"NELAMANGALA "},{"Id":60665,"Health Facility Name":"Byrasandra","address":"","street":"Byrasandra","landmark":"","zipcode":561203,"landline_number":"","latitude":13.2485,"longitude":77.5207,"altitude":0,"Facility Type":"nursing home","state":"Karnataka","city":"Bangalore Rural","location":"Dod Ballapur ","Block_Name":"DOD BALLAPUR "},{"Id":60950,"Health Facility Name":"UTTARAHALLI UPHC","address":"Uttarahalli","street":"BANASHEKANRI MAIN ROAD","landmark":"NEAR TEMPLE","zipcode":560061,"landline_number":"","latitude":12.9045,"longitude":77.5443,"altitude":0,"Facility Type":"Hospital","state":"Karnataka","city":"Bangalore","location":"Bangalore South","Block_Name":"BANGALORE SOUTH"},{"Id":61233,"Health Facility Name":"JIGANI 24X7 UPHC","address":"Hospital JIGANI","street":"BANNERUGATTA & ANEKAL  MAIN ROAD","landmark":"NEAR TELEPHONE EXCHANGE","zipcode":560105,"landline_number":"","latitude":12.7848,"longitude":77.6396,"altitude":0,"Facility Type":"Hospital","state":"Karnataka","city":"Bangalore","location":"Anekal","Block_Name":"ANEKAL"},{"Id":61282,"Health Facility Name":"Bashettahally","address":"","street":"Bashettahally","landmark":"","zipcode":561203,"landline_number":"","latitude":13.2599,"longitude":77.5529,"altitude":0,"Facility Type":"nursing home","state":"Karnataka","city":"Bangalore Rural","location":"Dod Ballapur ","Block_Name":"DOD BALLAPUR "},{"Id":61723,"Health Facility Name":"Narasipura","address":"Hospital P.H.C M S Palya","street":"Narasipura","landmark":"","zipcode":560097,"landline_number":"","latitude":13.0768,"longitude":77.5569,"altitude":100,"Facility Type":"nursing home","state":"Karnataka","city":"Bangalore","location":"Bangalore North","Block_Name":"BANGALORE NORTH"},{"Id":61899,"Health Facility Name":"Sametanahalli","address":"","street":"Sametanahalli","landmark":"","zipcode":562111,"landline_number":"","latitude":12.9806,"longitude":77.7897,"altitude":0,"Facility Type":"nursing home","state":"Karnataka","city":"Bangalore Rural","location":"Hosakote ","Block_Name":"HOSAKOTE "},{"Id":62736,"Health Facility Name":"SIDDAPURA UPHC","address":"Primary Health Center,","street":"Siddapura HAL Road","landmark":"Siddapura HAL Road","zipcode":560066,"landline_number":"","latitude":12.9555,"longitude":77.7318,"altitude":0,"Facility Type":"Hospital","state":"Karnataka","city":"Bangalore","location":"Bangalore East","Block_Name":"BANGALORE EAST"},{"Id":63184,"Health Facility Name":"A.K.Coloney","address":"nursing home AK COLONY","street":"THYAGARAJA ROAD","landmark":"NEAR AMBEDKAR STATUE","zipcode":562106,"landline_number":"","latitude":12.7142,"longitude":77.6922,"altitude":0,"Facility Type":"nursing home","state":"Karnataka","city":"Bangalore","location":"Anekal","Block_Name":"ANEKAL"},{"Id":63291,"Health Facility Name":"BANGALORE EAST TH","address":"K.R.Pura Genaral Hospital","street":"","landmark":"Old Madras road","zipcode":560036,"landline_number":"","latitude":13.0091288,"longitude":77.689055,"altitude":0,"Facility Type":"home health agency","state":"Karnataka","city":"Bangalore","location":"Bangalore East","Block_Name":"BANGALORE EAST"},{"Id":63509,"Health Facility Name":"Modalakote","address":"","street":"Modalakote","landmark":"","zipcode":562132,"landline_number":8277517962,"latitude":13.1136,"longitude":77.3124,"altitude":0,"Facility Type":"Hospital","state":"Karnataka","city":"Bangalore Rural","location":"Nelamangala ","Block_Name":"NELAMANGALA "},{"Id":63912,"Health Facility Name":"Ravugodlu","address":"Ravugodlu","street":"BOLARE POST","landmark":"KANANKAPURA MAIN ROAD","zipcode":560082,"landline_number":"","latitude":12.7479,"longitude":77.4985,"altitude":0,"Facility Type":"nursing home","state":"Karnataka","city":"Bangalore","location":"Bangalore South","Block_Name":"BANGALORE SOUTH"},{"Id":64805,"Health Facility Name":"Marsuru","address":"nursing home MARSURU","street":"MARSURU MADIWALA ROAD","landmark":"RAILWAY TRACK","zipcode":562106,"landline_number":"","latitude":12.763,"longitude":77.7125,"altitude":0,"Facility Type":"nursing home","state":"Karnataka","city":"Bangalore","location":"Anekal","Block_Name":"ANEKAL"},{"Id":65198,"Health Facility Name":"BELANDUR","address":"nursing home Bellanduru","street":"","landmark":"","zipcode":560103,"landline_number":"","latitude":12.9308,"longitude":77.6758,"altitude":0,"Facility Type":"nursing home","state":"Karnataka","city":"Bangalore","location":"Bangalore East","Block_Name":"BANGALORE EAST"},{"Id":65497,"Health Facility Name":"vijayapura A","address":"","street":"vijayapura A","landmark":"Urban","zipcode":562110,"landline_number":"","latitude":13.294,"longitude":77.7901,"altitude":0,"Facility Type":"nursing home","state":"Karnataka","city":"Bangalore Rural","location":"Devanahalli ","Block_Name":"DEVANAHALLI "},{"Id":66033,"Health Facility Name":"Ram Sagar","address":"nursing home RAMASAGARA","street":"DOMMASANDRA  ROAD","landmark":"NEAR ANGANAWADI","zipcode":560099,"landline_number":"","latitude":12.821,"longitude":77.7178,"altitude":0,"Facility Type":"nursing home","state":"Karnataka","city":"Bangalore","location":"Anekal","Block_Name":"ANEKAL"},{"Id":66246,"Health Facility Name":"G .Hoshally-B","address":"","street":"G .Hoshally-B","landmark":"","zipcode":561203,"landline_number":"","latitude":13.4387,"longitude":77.4605,"altitude":0,"Facility Type":"nursing home","state":"Karnataka","city":"Bangalore Rural","location":"Dod Ballapur ","Block_Name":"DOD BALLAPUR "},{"Id":66272,"Health Facility Name":"ATTURU","address":"Hospital P.H.C Atturu","street":"Atturu Layout Oposit ambabavani Temple Road","landmark":"","zipcode":560064,"landline_number":"","latitude":13.0991,"longitude":77.565,"altitude":200,"Facility Type":"nursing home","state":"Karnataka","city":"Bangalore","location":"Bangalore North","Block_Name":"BANGALORE NORTH"},{"Id":66822,"Health Facility Name":"Bhadripura","address":"nursing home BHADRIPURA","street":"ANEKAL HOSUR MAIN ROAD","landmark":"NEAR GOVERNAMENT SCHOOL","zipcode":562106,"landline_number":"","latitude":12.7042,"longitude":77.6997,"altitude":0,"Facility Type":"nursing home","state":"Karnataka","city":"Bangalore","location":"Anekal","Block_Name":"ANEKAL"},{"Id":66908,"Health Facility Name":"NELAMANGALA TH","address":"","street":"","landmark":"","zipcode":"","landline_number":"","latitude":0,"longitude":0,"altitude":0,"Facility Type":"Hospital","state":"Karnataka","city":"Bangalore Rural","location":"Nelamangala ","Block_Name":"NELAMANGALA "},{"Id":67211,"Health Facility Name":"Jadigenahally-A","address":"","street":"Jadigenahally-A","landmark":"","zipcode":562114,"landline_number":"","latitude":13.0468,"longitude":77.8569,"altitude":0,"Facility Type":"nursing home","state":"Karnataka","city":"Bangalore Rural","location":"Hosakote ","Block_Name":"HOSAKOTE "},{"Id":67301,"Health Facility Name":"Beguru","address":"Beguru","street":"MAIN ROAD","landmark":"NEAR ARALIY KATTE","zipcode":560068,"landline_number":"","latitude":12.8777,"longitude":77.6251,"altitude":0,"Facility Type":"nursing home","state":"Karnataka","city":"Bangalore","location":"Bangalore South","Block_Name":"BANGALORE SOUTH"},{"Id":67452,"Health Facility Name":"Bhairanakunte","address":"Bhairanakunte","street":"Bhairanakunte","landmark":"Bhairanakunte","zipcode":560045,"landline_number":"","latitude":13.031,"longitude":77.6202,"altitude":300,"Facility Type":"nursing home","state":"Karnataka","city":"Bangalore","location":"Bangalore North","Block_Name":"BANGALORE NORTH"},{"Id":67723,"Health Facility Name":"KADUGODI 24X7 UPHC","address":"Primary Health Center,","street":"Primary Health Center,","landmark":"Kadugodi Whit Filed Road","zipcode":560067,"landline_number":"","latitude":12.997,"longitude":77.7618,"altitude":0,"Facility Type":"Hospital","state":"Karnataka","city":"Bangalore","location":"Bangalore East","Block_Name":"BANGALORE EAST"},{"Id":67817,"Health Facility Name":"KODIGENAHALLI","address":"","street":"KODIGENAHALLI","landmark":"","zipcode":561203,"landline_number":81197606019,"latitude":13.3034,"longitude":77.5112,"altitude":0,"Facility Type":"nursing home","state":"Karnataka","city":"Bangalore Rural","location":"Dod Ballapur ","Block_Name":"DOD BALLAPUR "},{"Id":68006,"Health Facility Name":"HESARAGHATTA","address":"Health Centre P.H.C Hesaraghatta","street":"Ivaragandapura","landmark":"","zipcode":560088,"landline_number":"","latitude":13.136,"longitude":77.4913,"altitude":100,"Facility Type":"nursing home","state":"Karnataka","city":"Bangalore","location":"Bangalore North","Block_Name":"BANGALORE NORTH"},{"Id":68257,"Health Facility Name":"MARASANDRA","address":"Health Centre Marasandra (Arkere)","street":"Marasandra (Arkere)","landmark":"","zipcode":560089,"landline_number":"","latitude":13.2227,"longitude":77.5488,"altitude":100,"Facility Type":"nursing home","state":"Karnataka","city":"Bangalore","location":"Bangalore North","Block_Name":"BANGALORE NORTH"},{"Id":68700,"Health Facility Name":"Avathi-B","address":"","street":"Avathi-B","landmark":"Rural","zipcode":562110,"landline_number":"","latitude":13.2925,"longitude":77.7513,"altitude":0,"Facility Type":"nursing home","state":"Karnataka","city":"Bangalore Rural","location":"Devanahalli ","Block_Name":"DEVANAHALLI "},{"Id":68990,"Health Facility Name":"K.Satyavara","address":"","street":"K.Satyavara","landmark":"","zipcode":562114,"landline_number":"","latitude":13.1629,"longitude":77.8707,"altitude":0,"Facility Type":"nursing home","state":"Karnataka","city":"Bangalore Rural","location":"Hosakote ","Block_Name":"HOSAKOTE "},{"Id":69510,"Health Facility Name":"SONNENAHALLI UPHC","address":"Hospital P.H.C Sonnenahalli","street":"Byatha Post","landmark":"","zipcode":560089,"landline_number":"","latitude":13.194,"longitude":77.5018,"altitude":100,"Facility Type":"Hospital","state":"Karnataka","city":"Bangalore","location":"Bangalore North","Block_Name":"BANGALORE NORTH"},{"Id":69673,"Health Facility Name":"BANGALORE NORTH TALUK HOSPITAL","address":"General Hospital General Hospital Road","street":"","landmark":"","zipcode":560064,"landline_number":"080-28562588","latitude":13.099626,"longitude":77.596178,"altitude":10,"Facility Type":"home health agency","state":"Karnataka","city":"Bangalore","location":"Bangalore North","Block_Name":"BANGALORE NORTH"},{"Id":69815,"Health Facility Name":"BALLURU UPHC","address":"Hospital BALLURU","street":"ATTIBELE TO MATTIGIRI ROAD","landmark":"NEAR NAGARAKUNTE","zipcode":562107,"landline_number":"","latitude":12.7542,"longitude":77.7874,"altitude":0,"Facility Type":"Hospital","state":"Karnataka","city":"Bangalore","location":"Anekal","Block_Name":"ANEKAL"},{"Id":70166,"Health Facility Name":"Witefield","address":"nursing home Witefield","street":"","landmark":"","zipcode":560066,"landline_number":"","latitude":12.9701,"longitude":77.7502,"altitude":0,"Facility Type":"nursing home","state":"Karnataka","city":"Bangalore","location":"Bangalore East","Block_Name":"BANGALORE EAST"},{"Id":70232,"Health Facility Name":"Kolur","address":"Kolur","street":"RAMOHALLI POST","landmark":"NEAR ANGANAVADI","zipcode":560074,"landline_number":"","latitude":12.8771,"longitude":77.4165,"altitude":0,"Facility Type":"nursing home","state":"Karnataka","city":"Bangalore","location":"Bangalore South","Block_Name":"BANGALORE SOUTH"},{"Id":70560,"Health Facility Name":"Kattigenahalli","address":"Kattigenahalli","street":"Kattigenahalli","landmark":"","zipcode":560064,"landline_number":"","latitude":13.1209,"longitude":77.6176,"altitude":200,"Facility Type":"nursing home","state":"Karnataka","city":"Bangalore","location":"Bangalore North","Block_Name":"BANGALORE NORTH"},{"Id":71148,"Health Facility Name":"Bettahalasur","address":"Health Centre Bettahalasur","street":"Bettahalasur","landmark":"","zipcode":562157,"landline_number":"","latitude":13.1591,"longitude":77.611,"altitude":50,"Facility Type":"nursing home","state":"Karnataka","city":"Bangalore","location":"Bangalore North","Block_Name":"BANGALORE NORTH"},{"Id":71418,"Health Facility Name":"Jalige","address":"","street":"Jalige","landmark":"","zipcode":562110,"landline_number":"","latitude":13.2263,"longitude":77.584,"altitude":0,"Facility Type":"nursing home","state":"Karnataka","city":"Bangalore Rural","location":"Devanahalli ","Block_Name":"DEVANAHALLI "},{"Id":71607,"Health Facility Name":"Immadihalli","address":"Immadihalli","street":"Immedihalli","landmark":"","zipcode":560087,"landline_number":"","latitude":12.9668,"longitude":77.7631,"altitude":0,"Facility Type":"nursing home","state":"Karnataka","city":"Bangalore","location":"Bangalore East","Block_Name":"BANGALORE EAST"},{"Id":71612,"Health Facility Name":"Bylanarasapura","address":"","street":"Bylanarasapura","landmark":"","zipcode":562112,"landline_number":"","latitude":13.1732,"longitude":77.9344,"altitude":0,"Facility Type":"Hospital","state":"Karnataka","city":"Bangalore Rural","location":"Hosakote ","Block_Name":"HOSAKOTE "},{"Id":71863,"Health Facility Name":"FRU ANEKAL TALUK HOSPITAL","address":"GENERAL HOSPITAL ANEKAL","street":"TALUK OFFICE ROAD","landmark":"NEAR KSRTC BUSSTAND","zipcode":562106,"landline_number":8027859291,"latitude":12.7092,"longitude":77.6953,"altitude":0,"Facility Type":"home health agency","state":"Karnataka","city":"Bangalore","location":"Anekal","Block_Name":"ANEKAL"},{"Id":72304,"Health Facility Name":"Hoskote CHC","address":"","street":"","landmark":"","zipcode":"","landline_number":"","latitude":0,"longitude":0,"altitude":0,"Facility Type":"nursing home","state":"Karnataka","city":"Bangalore Rural","location":"Hosakote ","Block_Name":"HOSAKOTE "},{"Id":72314,"Health Facility Name":"K S HALLI UPHC","address":"Primary Health Center,","street":"Kadusonnappanahalli","landmark":"Kannurupost","zipcode":562149,"landline_number":"","latitude":13.0978,"longitude":77.6663,"altitude":0,"Facility Type":"Hospital","state":"Karnataka","city":"Bangalore","location":"Bangalore East","Block_Name":"BANGALORE EAST"},{"Id":72398,"Health Facility Name":"Sadahalli","address":"","street":"Sadahalli","landmark":"","zipcode":562110,"landline_number":"","latitude":13.2062,"longitude":77.6459,"altitude":0,"Facility Type":"Hospital","state":"Karnataka","city":"Bangalore Rural","location":"Devanahalli ","Block_Name":"DEVANAHALLI "},{"Id":72423,"Health Facility Name":"Devanahally-E","address":"","street":"","landmark":"","zipcode":"","landline_number":"","latitude":0,"longitude":0,"altitude":0,"Facility Type":"nursing home","state":"Karnataka","city":"Bangalore Rural","location":"Devanahalli ","Block_Name":"DEVANAHALLI "},{"Id":72438,"Health Facility Name":"Budigere","address":"","street":"Budigere","landmark":"","zipcode":562129,"landline_number":"","latitude":13.1378,"longitude":77.7447,"altitude":0,"Facility Type":"Hospital","state":"Karnataka","city":"Bangalore Rural","location":"Devanahalli ","Block_Name":"DEVANAHALLI "},{"Id":72611,"Health Facility Name":"Elekyathanahalli B","address":"","street":"Elekyathanahalli B","landmark":"","zipcode":562111,"landline_number":8277517946,"latitude":13.297,"longitude":77.2687,"altitude":0,"Facility Type":"nursing home","state":"Karnataka","city":"Bangalore Rural","location":"Nelamangala ","Block_Name":"NELAMANGALA "},{"Id":72850,"Health Facility Name":"Siddapura","address":"nursing home Siddapura","street":"","landmark":"","zipcode":560066,"landline_number":"","latitude":12.9555,"longitude":77.7318,"altitude":0,"Facility Type":"nursing home","state":"Karnataka","city":"Bangalore","location":"Bangalore East","Block_Name":"BANGALORE EAST"},{"Id":73240,"Health Facility Name":"Bannerughatta","address":"nursing home BANNERUGHATTA","street":"JIGANI BANGALORE RAOD","landmark":"NEAR ANJANEYATEMPLE","zipcode":562107,"landline_number":"","latitude":12.8138,"longitude":77.5796,"altitude":0,"Facility Type":"nursing home","state":"Karnataka","city":"Bangalore","location":"Anekal","Block_Name":"ANEKAL"},{"Id":73309,"Health Facility Name":"Anneswara","address":"","street":"Anneswara","landmark":"","zipcode":562129,"landline_number":"","latitude":13.2184,"longitude":77.6934,"altitude":0,"Facility Type":"nursing home","state":"Karnataka","city":"Bangalore Rural","location":"Devanahalli ","Block_Name":"DEVANAHALLI "},{"Id":73371,"Health Facility Name":"BANGARAPANAGARA","address":"Bangarappanagara","street":"1ST MAIN","landmark":"DK SHIVAKUMAR GLOBAL COLLAGE","zipcode":560098,"landline_number":"","latitude":12.9304,"longitude":77.5224,"altitude":0,"Facility Type":"nursing home","state":"Karnataka","city":"Bangalore","location":"Bangalore South","Block_Name":"BANGALORE SOUTH"},{"Id":73483,"Health Facility Name":"Singapura","address":"SINGASANDRA","street":"PHC BYATARAYANAPUR","landmark":"KUVEMPUNAGAR","zipcode":"","landline_number":"","latitude":13.0754,"longitude":77.5377,"altitude":200,"Facility Type":"nursing home","state":"Karnataka","city":"Bangalore","location":"Bangalore North","Block_Name":"BANGALORE NORTH"},{"Id":74061,"Health Facility Name":"YALACHENAHALLI","address":"Yelechenahalli","street":"KANAKAPURA MAIN ROAD","landmark":"BBMP WARD OFFICE","zipcode":560078,"landline_number":"","latitude":12.9004,"longitude":77.5709,"altitude":0,"Facility Type":"nursing home","state":"Karnataka","city":"Bangalore","location":"Bangalore South","Block_Name":"BANGALORE SOUTH"},{"Id":74252,"Health Facility Name":"P P Palya","address":"Health Centre P P Palya","street":"P P Palya","landmark":"P P Palya","zipcode":560056,"landline_number":"","latitude":12.9742,"longitude":77.5081,"altitude":50,"Facility Type":"nursing home","state":"Karnataka","city":"Bangalore","location":"Bangalore North","Block_Name":"BANGALORE NORTH"},{"Id":74355,"Health Facility Name":"Bendiganahalli-A","address":"","street":"Bendiganahalli-A","landmark":"","zipcode":562129,"landline_number":"","latitude":13.2161,"longitude":77.8315,"altitude":0,"Facility Type":"nursing home","state":"Karnataka","city":"Bangalore Rural","location":"Hosakote ","Block_Name":"HOSAKOTE "},{"Id":74748,"Health Facility Name":"KODATHI","address":"PHC Kodathi","street":"Carmelaram post","landmark":"","zipcode":560035,"landline_number":"","latitude":12.9001,"longitude":77.7224,"altitude":0,"Facility Type":"Hospital","state":"Karnataka","city":"Bangalore","location":"Bangalore East","Block_Name":"BANGALORE EAST"},{"Id":75002,"Health Facility Name":"MAHADEVA KODIGEHALLI","address":"Hospital P.H.C Bagaluru","street":"M k halli","landmark":"","zipcode":562149,"landline_number":"","latitude":13.1442,"longitude":77.7027,"altitude":100,"Facility Type":"nursing home","state":"Karnataka","city":"Bangalore","location":"Bangalore North","Block_Name":"BANGALORE NORTH"},{"Id":76396,"Health Facility Name":"HEROHALLI","address":"Hospital P.H.C Herohalli","street":"Herohalli","landmark":"","zipcode":560091,"landline_number":"","latitude":12.9861,"longitude":77.489,"altitude":100,"Facility Type":"nursing home","state":"Karnataka","city":"Bangalore","location":"Bangalore North","Block_Name":"BANGALORE NORTH"},{"Id":76443,"Health Facility Name":"MARALENAHALLI","address":"","street":"MARALENAHALLI","landmark":"","zipcode":561203,"landline_number":81197606019,"latitude":13.329,"longitude":77.4767,"altitude":0,"Facility Type":"nursing home","state":"Karnataka","city":"Bangalore Rural","location":"Dod Ballapur ","Block_Name":"DOD BALLAPUR "},{"Id":77043,"Health Facility Name":"AMRUTHAHALLI","address":"Hospital P.H.C Amruthahalli","street":"Amruthahalli","landmark":"","zipcode":560092,"landline_number":"","latitude":13.0659,"longitude":77.5979,"altitude":0,"Facility Type":"nursing home","state":"Karnataka","city":"Bangalore","location":"Bangalore North","Block_Name":"BANGALORE NORTH"},{"Id":77064,"Health Facility Name":"Madure","address":"","street":"Madure","landmark":"","zipcode":561203,"landline_number":"","latitude":13.2034,"longitude":77.4569,"altitude":0,"Facility Type":"nursing home","state":"Karnataka","city":"Bangalore Rural","location":"Dod Ballapur ","Block_Name":"DOD BALLAPUR "},{"Id":77638,"Health Facility Name":"Yaliyur","address":"","street":"Yaliyuru","landmark":"","zipcode":562135,"landline_number":"","latitude":13.257,"longitude":77.7634,"altitude":0,"Facility Type":"nursing home","state":"Karnataka","city":"Bangalore Rural","location":"Devanahalli ","Block_Name":"DEVANAHALLI "},{"Id":77903,"Health Facility Name":"TAVAREKERE 24X7 UPHC","address":"Tavarekere","street":"MAGADI MAIN ROAD","landmark":"CIRCAL","zipcode":562130,"landline_number":"","latitude":12.9658,"longitude":77.401,"altitude":0,"Facility Type":"Hospital","state":"Karnataka","city":"Bangalore","location":"Bangalore South","Block_Name":"BANGALORE SOUTH"},{"Id":77945,"Health Facility Name":"Gudlumuddenahalli","address":"","street":"Gudlumuddenahalli","landmark":"","zipcode":562135,"landline_number":"","latitude":13.3278,"longitude":77.778,"altitude":0,"Facility Type":"Hospital","state":"Karnataka","city":"Bangalore Rural","location":"Devanahalli ","Block_Name":"DEVANAHALLI "},{"Id":78426,"Health Facility Name":"ULLAL","address":"Hospital P.H.C Ullal Upnagara","street":"","landmark":"","zipcode":560056,"landline_number":"","latitude":12.9523,"longitude":77.4843,"altitude":200,"Facility Type":"nursing home","state":"Karnataka","city":"Bangalore","location":"Bangalore North","Block_Name":"BANGALORE NORTH"},{"Id":79621,"Health Facility Name":"Uttarahalli","address":"Uttarahalli","street":"BANASANKARI MAIN ROAD","landmark":"NEAR AJANEYA TEMPLE","zipcode":560061,"landline_number":"","latitude":12.9044,"longitude":77.5443,"altitude":0,"Facility Type":"nursing home","state":"Karnataka","city":"Bangalore","location":"Bangalore South","Block_Name":"BANGALORE SOUTH"},{"Id":79679,"Health Facility Name":"Subramanyapura","address":"Subramanyapura","street":"KONANKUNTE MAIN ROAD","landmark":"NEAR POST OFFICE","zipcode":560061,"landline_number":"","latitude":12.9118,"longitude":77.5526,"altitude":0,"Facility Type":"nursing home","state":"Karnataka","city":"Bangalore","location":"Bangalore South","Block_Name":"BANGALORE SOUTH"},{"Id":79681,"Health Facility Name":"Nelkunte","address":"","street":"Nelkunte","landmark":"","zipcode":561203,"landline_number":"","latitude":13.3712,"longitude":77.4869,"altitude":0,"Facility Type":"nursing home","state":"Karnataka","city":"Bangalore Rural","location":"Dod Ballapur ","Block_Name":"DOD BALLAPUR "},{"Id":79717,"Health Facility Name":"karehalli","address":"","street":"karehalli","landmark":"","zipcode":562110,"landline_number":"","latitude":13.3274,"longitude":77.6894,"altitude":0,"Facility Type":"nursing home","state":"Karnataka","city":"Bangalore Rural","location":"Devanahalli ","Block_Name":"DEVANAHALLI "},{"Id":80340,"Health Facility Name":"Dobbaspet","address":"","street":"DOBASPETE","landmark":"","zipcode":562111,"landline_number":"080-27735364","latitude":13.2294,"longitude":77.242,"altitude":0,"Facility Type":"Hospital","state":"Karnataka","city":"Bangalore Rural","location":"Nelamangala ","Block_Name":"NELAMANGALA "},{"Id":80460,"Health Facility Name":"Dasarahalli","address":"nursing home Dasarahalli","street":"Dasarahalli","landmark":"","zipcode":560077,"landline_number":"","latitude":13.0566,"longitude":77.6132,"altitude":0,"Facility Type":"nursing home","state":"Karnataka","city":"Bangalore","location":"Bangalore East","Block_Name":"BANGALORE EAST"},{"Id":80586,"Health Facility Name":"Baraguru","address":"","street":"Baraguru","landmark":"","zipcode":562111,"landline_number":8277517950,"latitude":13.322,"longitude":77.325,"altitude":0,"Facility Type":"nursing home","state":"Karnataka","city":"Bangalore Rural","location":"Nelamangala ","Block_Name":"NELAMANGALA "},{"Id":81188,"Health Facility Name":"Sadahalli","address":"","street":"","landmark":"","zipcode":"","landline_number":"","latitude":0,"longitude":0,"altitude":0,"Facility Type":"nursing home","state":"Karnataka","city":"Bangalore Rural","location":"Devanahalli ","Block_Name":"DEVANAHALLI "},{"Id":81347,"Health Facility Name":"NEYGANAGARA","address":"Neygenagara","street":"BANNERUGHATTA MAIN ROAD","landmark":"GOVT SCHOOL","zipcode":560083,"landline_number":"","latitude":12.8436,"longitude":77.5849,"altitude":0,"Facility Type":"nursing home","state":"Karnataka","city":"Bangalore","location":"Bangalore South","Block_Name":"BANGALORE SOUTH"},{"Id":81372,"Health Facility Name":"KONAPPANAAGRAHARA","address":"Konappana Agrahara","street":"HOSUR MAIN ROAD","landmark":"GRAMAPUCHANTH  OFFICE","zipcode":560100,"landline_number":"","latitude":12.8472,"longitude":77.6694,"altitude":0,"Facility Type":"nursing home","state":"Karnataka","city":"Bangalore","location":"Bangalore South","Block_Name":"BANGALORE SOUTH"},{"Id":81510,"Health Facility Name":"ROOPENA AGRAHARA UPHC","address":"Roopena Agrahara","street":"NEAR SAIBABA TEMPLE","landmark":"","zipcode":560068,"landline_number":"","latitude":12.9083,"longitude":77.6233,"altitude":0,"Facility Type":"Hospital","state":"Karnataka","city":"Bangalore","location":"Bangalore South","Block_Name":"BANGALORE SOUTH"},{"Id":82510,"Health Facility Name":"ISLAMPURA","address":"nursing home Isalampura","street":"Isalampura","landmark":"","zipcode":560037,"landline_number":"","latitude":12.962,"longitude":77.6699,"altitude":0,"Facility Type":"nursing home","state":"Karnataka","city":"Bangalore","location":"Bangalore East","Block_Name":"BANGALORE EAST"},{"Id":82559,"Health Facility Name":"ANJANANAGARA","address":"Anjana Nagar","street":"Anjana Nagar","landmark":"","zipcode":560056,"landline_number":"","latitude":12.9858,"longitude":77.4877,"altitude":200,"Facility Type":"nursing home","state":"Karnataka","city":"Bangalore","location":"Bangalore North","Block_Name":"BANGALORE NORTH"},{"Id":82992,"Health Facility Name":"Kadugondanhalli  CHC","address":"hospital C.H.C Kadugondana Halli","street":"","landmark":"","zipcode":560045,"landline_number":"","latitude":13.0211,"longitude":77.6187,"altitude":100,"Facility Type":"hospital","state":"Karnataka","city":"Bangalore","location":"Bangalore North","Block_Name":"BANGALORE NORTH"},{"Id":83483,"Health Facility Name":"Devanahalli-B","address":"","street":"Devanahalli-B","landmark":"","zipcode":562110,"landline_number":"","latitude":13.2442,"longitude":77.7088,"altitude":0,"Facility Type":"nursing home","state":"Karnataka","city":"Bangalore Rural","location":"Devanahalli ","Block_Name":"DEVANAHALLI "},{"Id":83558,"Health Facility Name":"CHC VIJAYAPURA","address":"","street":"VIJAYAPURA","landmark":"","zipcode":562110,"landline_number":"","latitude":13.2941,"longitude":77.7901,"altitude":0,"Facility Type":"hospital","state":"Karnataka","city":"Bangalore Rural","location":"Devanahalli ","Block_Name":"DEVANAHALLI "},{"Id":83635,"Health Facility Name":"Nidaghatta","address":"","street":"Nidaghatta","landmark":"","zipcode":560068,"landline_number":"","latitude":13.092,"longitude":77.8359,"altitude":0,"Facility Type":"nursing home","state":"Karnataka","city":"Bangalore Rural","location":"Hosakote ","Block_Name":"HOSAKOTE "},{"Id":83754,"Health Facility Name":"HALENAHALLI","address":"","street":"HALENAHALLI","landmark":"","zipcode":561204,"landline_number":81197601485,"latitude":13.2239,"longitude":77.3957,"altitude":0,"Facility Type":"nursing home","state":"Karnataka","city":"Bangalore Rural","location":"Dod Ballapur ","Block_Name":"DOD BALLAPUR "},{"Id":84066,"Health Facility Name":"HURALICHIKKANAHALLI","address":"Health Centre Hurilichiknahalli","street":"Hurilichiknahalli","landmark":"","zipcode":560088,"landline_number":"","latitude":13.1153,"longitude":77.4829,"altitude":200,"Facility Type":"nursing home","state":"Karnataka","city":"Bangalore","location":"Bangalore North","Block_Name":"BANGALORE NORTH"},{"Id":84850,"Health Facility Name":"ANDRAHALLI","address":"Hospital P.H.C Herohalli","street":"Andrahalli","landmark":"Andrahalli","zipcode":560091,"landline_number":"","latitude":12.9915,"longitude":77.4874,"altitude":100,"Facility Type":"nursing home","state":"Karnataka","city":"Bangalore","location":"Bangalore North","Block_Name":"BANGALORE NORTH"},{"Id":84970,"Health Facility Name":"Budigere-B","address":"","street":"Budigere","landmark":"","zipcode":562129,"landline_number":"","latitude":13.1493,"longitude":77.7546,"altitude":0,"Facility Type":"nursing home","state":"Karnataka","city":"Bangalore Rural","location":"Devanahalli ","Block_Name":"DEVANAHALLI "},{"Id":85101,"Health Facility Name":"K NARAYANAPURA UPHC","address":"Primary Health Center,","street":"K. Narayanapura","landmark":"Bagalur ROAD","zipcode":560077,"landline_number":"","latitude":13.0639,"longitude":77.6418,"altitude":0,"Facility Type":"Hospital","state":"Karnataka","city":"Bangalore","location":"Bangalore East","Block_Name":"BANGALORE EAST"},{"Id":85546,"Health Facility Name":"Anugondanahalli","address":"","street":"Anugondanahalli","landmark":"","zipcode":560038,"landline_number":"","latitude":12.9593,"longitude":77.8151,"altitude":0,"Facility Type":"Hospital","state":"Karnataka","city":"Bangalore Rural","location":"Hosakote ","Block_Name":"HOSAKOTE "},{"Id":85604,"Health Facility Name":"Anupahally","address":"","street":"Anupahally","landmark":"","zipcode":562112,"landline_number":"","latitude":13.2157,"longitude":77.8567,"altitude":0,"Facility Type":"nursing home","state":"Karnataka","city":"Bangalore Rural","location":"Hosakote ","Block_Name":"HOSAKOTE "},{"Id":85976,"Health Facility Name":"Devanahally-B","address":"","street":"","landmark":"","zipcode":"","landline_number":"","latitude":0,"longitude":0,"altitude":0,"Facility Type":"nursing home","state":"Karnataka","city":"Bangalore Rural","location":"Devanahalli ","Block_Name":"DEVANAHALLI "},{"Id":86255,"Health Facility Name":"KUVEMPUNAGAR","address":"nursing home KUVEMPU NAGARA","street":"ANEKAL HOSUR MAIN ROAD","landmark":"NEAR GOVERNAMENT SCHOOL","zipcode":562106,"landline_number":"","latitude":12.6976,"longitude":77.7122,"altitude":0,"Facility Type":"nursing home","state":"Karnataka","city":"Bangalore","location":"Anekal","Block_Name":"ANEKAL"},{"Id":86267,"Health Facility Name":"Bidarahalli","address":"nursing home Bidarahalli","street":"","landmark":"","zipcode":560049,"landline_number":"","latitude":13.0604,"longitude":77.7172,"altitude":0,"Facility Type":"nursing home","state":"Karnataka","city":"Bangalore","location":"Bangalore East","Block_Name":"BANGALORE EAST"},{"Id":86454,"Health Facility Name":"Chikkathathamangala","address":"","street":"Chikkathathamangala","landmark":"","zipcode":562135,"landline_number":"","latitude":13.2725,"longitude":77.768,"altitude":0,"Facility Type":"nursing home","state":"Karnataka","city":"Bangalore Rural","location":"Devanahalli ","Block_Name":"DEVANAHALLI "},{"Id":86789,"Health Facility Name":"SubcenterD","address":"","street":"Doddaballapura","landmark":"","zipcode":561203,"landline_number":"","latitude":13.2947,"longitude":77.5384,"altitude":0,"Facility Type":"nursing home","state":"Karnataka","city":"Bangalore Rural","location":"Dod Ballapur ","Block_Name":"DOD BALLAPUR "},{"Id":86865,"Health Facility Name":"Harohally","address":"","street":"Harohalli","landmark":"","zipcode":562110,"landline_number":"","latitude":13.3158,"longitude":77.7484,"altitude":0,"Facility Type":"nursing home","state":"Karnataka","city":"Bangalore Rural","location":"Devanahalli ","Block_Name":"DEVANAHALLI "},{"Id":86950,"Health Facility Name":"SubcenterC","address":"","street":"Doddaballapura","landmark":"","zipcode":561203,"landline_number":"","latitude":13.3061,"longitude":77.5417,"altitude":0,"Facility Type":"nursing home","state":"Karnataka","city":"Bangalore Rural","location":"Dod Ballapur ","Block_Name":"DOD BALLAPUR "},{"Id":87280,"Health Facility Name":"Kaidenahalli","address":"Kaidenahalli nursing home","street":"","landmark":"GOVT HOSPITAL K.RPURAM","zipcode":560036,"landline_number":"","latitude":13.0143,"longitude":77.6789,"altitude":0,"Facility Type":"nursing home","state":"Karnataka","city":"Bangalore","location":"Bangalore East","Block_Name":"BANGALORE EAST"},{"Id":87503,"Health Facility Name":"Nandagudi-B","address":"","street":"Nandagudi-B","landmark":"","zipcode":562112,"landline_number":"","latitude":13.2024,"longitude":77.9019,"altitude":0,"Facility Type":"nursing home","state":"Karnataka","city":"Bangalore Rural","location":"Hosakote ","Block_Name":"HOSAKOTE "},{"Id":87601,"Health Facility Name":"CHIKKAJALA","address":"Health Centre Chikkajala","street":"Chikkajala","landmark":"Chikkajala","zipcode":560089,"landline_number":"080-28477477","latitude":13.1829,"longitude":77.6428,"altitude":50,"Facility Type":"nursing home","state":"Karnataka","city":"Bangalore","location":"Bangalore North","Block_Name":"BANGALORE NORTH"},{"Id":87645,"Health Facility Name":"HALENAHALLI","address":"","street":"HALENAHALLI","landmark":"","zipcode":561204,"landline_number":81197601485,"latitude":13.2239,"longitude":77.3957,"altitude":0,"Facility Type":"Hospital","state":"Karnataka","city":"Bangalore Rural","location":"Dod Ballapur ","Block_Name":"DOD BALLAPUR "},{"Id":88132,"Health Facility Name":"Kannamangala","address":"","street":"Kannamangala","landmark":"","zipcode":561203,"landline_number":8120000000000,"latitude":13.1969,"longitude":77.4105,"altitude":0,"Facility Type":"nursing home","state":"Karnataka","city":"Bangalore Rural","location":"Dod Ballapur ","Block_Name":"DOD BALLAPUR "},{"Id":88309,"Health Facility Name":"KAIKONDRAHALLI","address":"Kaikonrrdrahalli nursing home","street":"Bellandur","landmark":"","zipcode":560035,"landline_number":"","latitude":12.9139,"longitude":77.6772,"altitude":0,"Facility Type":"nursing home","state":"Karnataka","city":"Bangalore","location":"Bangalore East","Block_Name":"BANGALORE EAST"},{"Id":88365,"Health Facility Name":"AGRAHARA LAYOUT","address":"Health Centre Agrahara layout","street":"Agrahara layout","landmark":"Agrahara layout","zipcode":560064,"landline_number":"","latitude":13.1055,"longitude":77.6173,"altitude":50,"Facility Type":"nursing home","state":"Karnataka","city":"Bangalore","location":"Bangalore North","Block_Name":"BANGALORE NORTH"},{"Id":88676,"Health Facility Name":"MELEKOTE","address":"","street":"MELEKOTE","landmark":"","zipcode":561203,"landline_number":81197654612,"latitude":13.3642,"longitude":77.6249,"altitude":0,"Facility Type":"Hospital","state":"Karnataka","city":"Bangalore Rural","location":"Dod Ballapur ","Block_Name":"DOD BALLAPUR "},{"Id":89010,"Health Facility Name":"Jadigenahally","address":"","street":"Jadigenahally","landmark":"","zipcode":562114,"landline_number":"","latitude":13.0469,"longitude":77.8569,"altitude":0,"Facility Type":"Hospital","state":"Karnataka","city":"Bangalore Rural","location":"Hosakote ","Block_Name":"HOSAKOTE "},{"Id":89041,"Health Facility Name":"Budigere","address":"","street":"","landmark":"","zipcode":"","landline_number":"","latitude":0,"longitude":0,"altitude":0,"Facility Type":"nursing home","state":"Karnataka","city":"Bangalore Rural","location":"Devanahalli ","Block_Name":"DEVANAHALLI "},{"Id":89537,"Health Facility Name":"TINDLU UPHC","address":"Hospital P.H.C Thindlu","street":"Thindlu","landmark":"Vidyaranyapura Post","zipcode":560097,"landline_number":"","latitude":13.0749,"longitude":77.5673,"altitude":100,"Facility Type":"Hospital","state":"Karnataka","city":"Bangalore","location":"Bangalore North","Block_Name":"BANGALORE NORTH"},{"Id":89572,"Health Facility Name":"KOTEBEDI","address":"Health Centre Kote bidi","street":"Kote bidi","landmark":"","zipcode":560064,"landline_number":"","latitude":13.1001,"longitude":77.597,"altitude":100,"Facility Type":"nursing home","state":"Karnataka","city":"Bangalore","location":"Bangalore North","Block_Name":"BANGALORE NORTH"},{"Id":89614,"Health Facility Name":"Muttanalluru","address":"nursing home MUTTANALLURU","street":"ATTIBELE  HUSKUR MAIN ROAD","landmark":"NEAR GOVERNAMENT SCHOOL","zipcode":562125,"landline_number":"","latitude":12.8321,"longitude":77.7337,"altitude":0,"Facility Type":"nursing home","state":"Karnataka","city":"Bangalore","location":"Anekal","Block_Name":"ANEKAL"},{"Id":89851,"Health Facility Name":"Gopalpura","address":"Health Centre Gopalpura","street":"Gopalpura","landmark":"Gopalpura","zipcode":562123,"landline_number":"","latitude":13.1396,"longitude":77.4283,"altitude":50,"Facility Type":"nursing home","state":"Karnataka","city":"Bangalore","location":"Bangalore North","Block_Name":"BANGALORE NORTH"},{"Id":89969,"Health Facility Name":"MALLASANDRA","address":"Mallasanda","street":"Mallasanda","landmark":"","zipcode":560057,"landline_number":"","latitude":13.0539,"longitude":77.5084,"altitude":100,"Facility Type":"nursing home","state":"Karnataka","city":"Bangalore","location":"Bangalore North","Block_Name":"BANGALORE NORTH"},{"Id":90269,"Health Facility Name":"Kuntabommanahalli","address":"","street":"Kuntabommanahalli","landmark":"","zipcode":562111,"landline_number":8277517953,"latitude":13.2875,"longitude":77.3012,"altitude":0,"Facility Type":"nursing home","state":"Karnataka","city":"Bangalore Rural","location":"Nelamangala ","Block_Name":"NELAMANGALA "},{"Id":90806,"Health Facility Name":"JALAHALLI UPHC","address":"Hospital P.H.C Jalahalli","street":"","landmark":"","zipcode":560013,"landline_number":"","latitude":13.0445,"longitude":77.5465,"altitude":100,"Facility Type":"Hospital","state":"Karnataka","city":"Bangalore","location":"Bangalore North","Block_Name":"BANGALORE NORTH"},{"Id":90825,"Health Facility Name":"NOSENOORU","address":"nursing home NOSENURU","street":"MANIN ROAD NOSENURU TO GOLLAHALLI RAOD","landmark":"NEAR GOVERNAMENT SCHOOL","zipcode":562107,"landline_number":"","latitude":12.7487,"longitude":77.6502,"altitude":0,"Facility Type":"nursing home","state":"Karnataka","city":"Bangalore","location":"Anekal","Block_Name":"ANEKAL"},{"Id":90897,"Health Facility Name":"Doddabidarakallu","address":"Health Centre Doddabidarakallu","street":"","landmark":"","zipcode":560073,"landline_number":"","latitude":13.0339,"longitude":77.4928,"altitude":50,"Facility Type":"nursing home","state":"Karnataka","city":"Bangalore","location":"Bangalore North","Block_Name":"BANGALORE NORTH"},{"Id":91103,"Health Facility Name":"Devanahalli-A","address":"","street":"","landmark":"","zipcode":"","landline_number":"","latitude":0,"longitude":0,"altitude":0,"Facility Type":"nursing home","state":"Karnataka","city":"Bangalore Rural","location":"Devanahalli ","Block_Name":"DEVANAHALLI "},{"Id":91126,"Health Facility Name":"KANNAMANGALA","address":"nursing home Kannamagala","street":"Kannamagala","landmark":"","zipcode":560049,"landline_number":"","latitude":13.0268,"longitude":77.77,"altitude":0,"Facility Type":"nursing home","state":"Karnataka","city":"Bangalore","location":"Bangalore East","Block_Name":"BANGALORE EAST"},{"Id":91162,"Health Facility Name":"Vaderahalli","address":"Health Centre Vaderahalli","street":"Vaderahalli","landmark":"Vaderahalli","zipcode":560090,"landline_number":"080-23254700","latitude":13.0909,"longitude":77.5384,"altitude":50,"Facility Type":"nursing home","state":"Karnataka","city":"Bangalore","location":"Bangalore North","Block_Name":"BANGALORE NORTH"},{"Id":91184,"Health Facility Name":"Kasbaagilu","address":"","street":"Kasbaagilu","landmark":"","zipcode":561203,"landline_number":"","latitude":13.2831,"longitude":77.5467,"altitude":0,"Facility Type":"nursing home","state":"Karnataka","city":"Bangalore Rural","location":"Dod Ballapur ","Block_Name":"DOD BALLAPUR "},{"Id":91213,"Health Facility Name":"HONGASANDRA","address":"VIDYAJOTHINAGARA","street":"PHC BOMMANA HALLI","landmark":"","zipcode":560068,"landline_number":"","latitude":12.9042,"longitude":77.6276,"altitude":0,"Facility Type":"nursing home","state":"Karnataka","city":"Bangalore","location":"Bangalore South","Block_Name":"BANGALORE SOUTH"},{"Id":91546,"Health Facility Name":"SubcenterE","address":"","street":"Doddaballapura","landmark":"","zipcode":561203,"landline_number":"","latitude":13.3089,"longitude":77.5374,"altitude":0,"Facility Type":"nursing home","state":"Karnataka","city":"Bangalore Rural","location":"Dod Ballapur ","Block_Name":"DOD BALLAPUR "},{"Id":91652,"Health Facility Name":"DODDAKANNALLI","address":"nursing home Doddakannahalli","street":"","landmark":"","zipcode":560035,"landline_number":"","latitude":12.9089,"longitude":77.696,"altitude":0,"Facility Type":"nursing home","state":"Karnataka","city":"Bangalore","location":"Bangalore East","Block_Name":"BANGALORE EAST"},